{
  "delhi": [
    {
      "name": "AIIMS Delhi",
      "type": "Government",
      "speciality": "Multi-Specialty",
      "rating": 4.8,
      "beds": 2478,
      "address": "Sri Aurobindo Marg, Ansari Nagar, New Delhi",
      "phone": "011-26588500",
      "emergency": true,
      "lat": 28.5672,
      "lng": 77.21
    },
    {
      "name": "Safdarjung Hospital",
      "type": "Government",
      "speciality": "Multi-Specialty",
      "rating": 4.3,
      "beds": 1531,
      "address": "Ansari Nagar West, New Delhi",
      "phone": "011-26707437",
      "emergency": true,
      "lat": 28.5687,
      "lng": 77.2066
    },
    {
      "name": "Max Super Speciality Hospital",
      "type": "Private",
      "speciality": "Cardiology, Neurology, Oncology",
      "rating": 4.6,
      "beds": 500,
      "address": "Saket, New Delhi",
      "phone": "011-26515050",
      "emergency": true,
      "lat": 28.5286,
      "lng": 77.2137
    },
    {
      "name": "Fortis Escorts Heart Institute",
      "type": "Private",
      "speciality": "Cardiology, Cardiac Surgery",
      "rating": 4.7,
      "beds": 310,
      "address": "Okhla Road, New Delhi",
      "phone": "011-47135000",
      "emergency": true,
      "lat": 28.5515,
      "lng": 77.2757
    },
    {
      "name": "Sir Ganga Ram Hospital",
      "type": "Private",
      "speciality": "Multi-Specialty",
      "rating": 4.5,
      "beds": 675,
      "address": "Rajinder Nagar, New Delhi",
      "phone": "011-25861662",
      "emergency": true,
      "lat": 28.6383,
      "lng": 77.187
    },
    {
      "name": "Apollo Hospital",
      "type": "Private",
      "speciality": "Multi-Specialty",
      "rating": 4.6,
      "beds": 710,
      "address": "Sarita Vihar, Mathura Road, New Delhi",
      "phone": "011-71791090",
      "emergency": true,
      "lat": 28.5355,
      "lng": 77.288
    },
    {
      "name": "BLK-Max Super Speciality Hospital",
      "type": "Private",
      "speciality": "Oncology, Transplant",
      "rating": 4.4,
      "beds": 650,
      "address": "Pusa Road, New Delhi",
      "phone": "011-30403040",
      "emergency": true,
      "lat": 28.6424,
      "lng": 77.1777
    },
    {
      "name": "Lok Nayak Hospital (LNJP)",
      "type": "Government",
      "speciality": "General, Emergency",
      "rating": 4.0,
      "beds": 2000,
      "address": "Jawaharlal Nehru Marg, New Delhi",
      "phone": "011-23232400",
      "emergency": true,
      "lat": 28.6379,
      "lng": 77.239
    }
  ],
  "mumbai": [
    {
      "name": "Tata Memorial Hospital",
      "type": "Government",
      "speciality": "Oncology, Cancer Treatment",
      "rating": 4.8,
      "beds": 629,
      "address": "Dr. E Borges Road, Parel, Mumbai",
      "phone": "022-24177000",
      "emergency": true,
      "lat": 19.004,
      "lng": 72.8428
    },
    {
      "name": "KEM Hospital",
      "type": "Government",
      "speciality": "Multi-Specialty",
      "rating": 4.4,
      "beds": 1800,
      "address": "Acharya Donde Marg, Parel, Mumbai",
      "phone": "022-24107000",
      "emergency": true,
      "lat": 19.002,
      "lng": 72.842
    },
    {
      "name": "Lilavati Hospital",
      "type": "Private",
      "speciality": "Multi-Specialty",
      "rating": 4.6,
      "beds": 314,
      "address": "A-791, Bandra Reclamation, Mumbai",
      "phone": "022-26751000",
      "emergency": true,
      "lat": 19.0505,
      "lng": 72.8264
    },
    {
      "name": "Kokilaben Dhirubhai Ambani Hospital",
      "type": "Private",
      "speciality": "Multi-Specialty, Robotics",
      "rating": 4.7,
      "beds": 750,
      "address": "Rao Saheb Achutrao Patwardhan Marg, Mumbai",
      "phone": "022-30999999",
      "emergency": true,
      "lat": 19.1315,
      "lng": 72.827
    },
    {
      "name": "Hinduja Hospital",
      "type": "Private",
      "speciality": "Multi-Specialty",
      "rating": 4.5,
      "beds": 351,
      "address": "Veer Savarkar Marg, Mahim, Mumbai",
      "phone": "022-24451515",
      "emergency": true,
      "lat": 19.0397,
      "lng": 72.8411
    },
    {
      "name": "Breach Candy Hospital",
      "type": "Private",
      "speciality": "Multi-Specialty",
      "rating": 4.5,
      "beds": 200,
      "address": "Bhulabhai Desai Road, Mumbai",
      "phone": "022-23667788",
      "emergency": true,
      "lat": 18.9712,
      "lng": 72.8051
    }
  ],
  "bangalore": [
    {
      "name": "Nimhans",
      "type": "Government",
      "speciality": "Neuroscience, Psychiatry",
      "rating": 4.7,
      "beds": 850,
      "address": "Hosur Road, Bangalore",
      "phone": "080-26995000",
      "emergency": true,
      "lat": 12.9426,
      "lng": 77.596
    },
    {
      "name": "Narayana Health City",
      "type": "Private",
      "speciality": "Cardiology, Multi-Specialty",
      "rating": 4.8,
      "beds": 3200,
      "address": "Bommasandra, Bangalore",
      "phone": "080-71222222",
      "emergency": true,
      "lat": 12.816,
      "lng": 77.6673
    },
    {
      "name": "Manipal Hospital",
      "type": "Private",
      "speciality": "Multi-Specialty",
      "rating": 4.6,
      "beds": 600,
      "address": "HAL Airport Road, Bangalore",
      "phone": "080-25024444",
      "emergency": true,
      "lat": 12.959,
      "lng": 77.647
    },
    {
      "name": "Fortis Hospital Bannerghatta",
      "type": "Private",
      "speciality": "Multi-Specialty",
      "rating": 4.5,
      "beds": 400,
      "address": "Bannerghatta Road, Bangalore",
      "phone": "080-66214444",
      "emergency": true,
      "lat": 12.8878,
      "lng": 77.5985
    },
    {
      "name": "Apollo Hospital Bangalore",
      "type": "Private",
      "speciality": "Multi-Specialty, Transplant",
      "rating": 4.6,
      "beds": 500,
      "address": "Bannerghatta Road, Bangalore",
      "phone": "080-26304050",
      "emergency": true,
      "lat": 12.8939,
      "lng": 77.596
    },
    {
      "name": "Victoria Hospital",
      "type": "Government",
      "speciality": "General, Teaching Hospital",
      "rating": 4.1,
      "beds": 1500,
      "address": "Fort, Bangalore",
      "phone": "080-26701150",
      "emergency": true,
      "lat": 12.9636,
      "lng": 77.573
    }
  ],
  "chennai": [
    {
      "name": "CMC Vellore (Satellite)",
      "type": "Private",
      "speciality": "Multi-Specialty",
      "rating": 4.8,
      "beds": 2700,
      "address": "Ranipet, Tamil Nadu",
      "phone": "0416-2281000",
      "emergency": true,
      "lat": 12.9184,
      "lng": 79.1325
    },
    {
      "name": "Apollo Hospital Chennai",
      "type": "Private",
      "speciality": "Multi-Specialty",
      "rating": 4.7,
      "beds": 700,
      "address": "Greams Lane, Chennai",
      "phone": "044-28296800",
      "emergency": true,
      "lat": 13.0607,
      "lng": 80.2511
    },
    {
      "name": "MIOT International",
      "type": "Private",
      "speciality": "Ortho, Spine, Neuro",
      "rating": 4.6,
      "beds": 600,
      "address": "Manapakkam, Chennai",
      "phone": "044-42002288",
      "emergency": true,
      "lat": 13.013,
      "lng": 80.1655
    },
    {
      "name": "Rajiv Gandhi Government Hospital",
      "type": "Government",
      "speciality": "Multi-Specialty, Trauma",
      "rating": 4.2,
      "beds": 2700,
      "address": "Park Town, Chennai",
      "phone": "044-25305000",
      "emergency": true,
      "lat": 13.0886,
      "lng": 80.2765
    },
    {
      "name": "Sri Ramachandra Hospital",
      "type": "Private",
      "speciality": "Multi-Specialty",
      "rating": 4.5,
      "beds": 1400,
      "address": "Porur, Chennai",
      "phone": "044-24768027",
      "emergency": true,
      "lat": 13.035,
      "lng": 80.147
    }
  ],
  "hyderabad": [
    {
      "name": "Nizam's Institute of Medical Sciences (NIMS)",
      "type": "Government",
      "speciality": "Multi-Specialty",
      "rating": 4.6,
      "beds": 1500,
      "address": "Punjagutta, Hyderabad",
      "phone": "040-23489000",
      "emergency": true,
      "lat": 17.4283,
      "lng": 78.4475
    },
    {
      "name": "Yashoda Hospital",
      "type": "Private",
      "speciality": "Multi-Specialty",
      "rating": 4.5,
      "beds": 800,
      "address": "Secunderabad, Hyderabad",
      "phone": "040-45678901",
      "emergency": true,
      "lat": 17.4404,
      "lng": 78.4982
    },
    {
      "name": "AIG Hospitals",
      "type": "Private",
      "speciality": "Gastroenterology",
      "rating": 4.7,
      "beds": 450,
      "address": "Gachibowli, Hyderabad",
      "phone": "040-42444222",
      "emergency": true,
      "lat": 17.4335,
      "lng": 78.3573
    },
    {
      "name": "Care Hospitals",
      "type": "Private",
      "speciality": "Cardiology, Neuro",
      "rating": 4.5,
      "beds": 435,
      "address": "Banjara Hills, Hyderabad",
      "phone": "040-30417777",
      "emergency": true,
      "lat": 17.4155,
      "lng": 78.4374
    },
    {
      "name": "Apollo Hospital Jubilee Hills",
      "type": "Private",
      "speciality": "Multi-Specialty",
      "rating": 4.6,
      "beds": 560,
      "address": "Jubilee Hills, Hyderabad",
      "phone": "040-23607777",
      "emergency": true,
      "lat": 17.4239,
      "lng": 78.4129
    }
  ],
  "kolkata": [
    {
      "name": "SSKM Hospital",
      "type": "Government",
      "speciality": "Multi-Specialty",
      "rating": 4.3,
      "beds": 1775,
      "address": "AJC Bose Road, Kolkata",
      "phone": "033-22041101",
      "emergency": true,
      "lat": 22.5388,
      "lng": 88.3481
    },
    {
      "name": "AMRI Hospital",
      "type": "Private",
      "speciality": "Multi-Specialty",
      "rating": 4.5,
      "beds": 410,
      "address": "Dhakuria, Kolkata",
      "phone": "033-66268000",
      "emergency": true,
      "lat": 22.509,
      "lng": 88.3643
    },
    {
      "name": "Apollo Gleneagles Hospital",
      "type": "Private",
      "speciality": "Multi-Specialty",
      "rating": 4.6,
      "beds": 510,
      "address": "Canal Circular Road, Kolkata",
      "phone": "033-23203040",
      "emergency": true,
      "lat": 22.5177,
      "lng": 88.3923
    },
    {
      "name": "Medica Superspecialty Hospital",
      "type": "Private",
      "speciality": "Neuro, Cardiac, Transplant",
      "rating": 4.5,
      "beds": 450,
      "address": "E.M. Bypass, Mukundapur, Kolkata",
      "phone": "033-66520000",
      "emergency": true,
      "lat": 22.505,
      "lng": 88.3958
    },
    {
      "name": "RN Tagore International",
      "type": "Private",
      "speciality": "Multi-Specialty",
      "rating": 4.4,
      "beds": 380,
      "address": "Mukundapur, Kolkata",
      "phone": "033-66863000",
      "emergency": true,
      "lat": 22.5015,
      "lng": 88.3919
    }
  ],
  "pune": [
    {
      "name": "Sassoon General Hospital",
      "type": "Government",
      "speciality": "General, Trauma",
      "rating": 4.1,
      "beds": 1348,
      "address": "Sassoon Road, Pune",
      "phone": "020-26128000",
      "emergency": true,
      "lat": 18.5195,
      "lng": 73.869
    },
    {
      "name": "Ruby Hall Clinic",
      "type": "Private",
      "speciality": "Multi-Specialty",
      "rating": 4.6,
      "beds": 550,
      "address": "Sassoon Road, Pune",
      "phone": "020-66455100",
      "emergency": true,
      "lat": 18.5185,
      "lng": 73.873
    },
    {
      "name": "Jehangir Hospital",
      "type": "Private",
      "speciality": "Multi-Specialty",
      "rating": 4.5,
      "beds": 350,
      "address": "Sassoon Road, Pune",
      "phone": "020-66812222",
      "emergency": true,
      "lat": 18.5183,
      "lng": 73.8735
    },
    {
      "name": "KEM Hospital Pune",
      "type": "Private",
      "speciality": "Multi-Specialty",
      "rating": 4.4,
      "beds": 550,
      "address": "Rasta Peth, Pune",
      "phone": "020-66030300",
      "emergency": true,
      "lat": 18.5235,
      "lng": 73.856
    },
    {
      "name": "Sahyadri Hospital",
      "type": "Private",
      "speciality": "Multi-Specialty",
      "rating": 4.5,
      "beds": 400,
      "address": "Deccan, Pune",
      "phone": "020-67210000",
      "emergency": true,
      "lat": 18.513,
      "lng": 73.843
    }
  ],
  "jaipur": [
    {
      "name": "SMS Hospital",
      "type": "Government",
      "speciality": "Multi-Specialty, Trauma",
      "rating": 4.2,
      "beds": 2700,
      "address": "JLN Marg, Jaipur",
      "phone": "0141-2518585",
      "emergency": true,
      "lat": 26.8956,
      "lng": 75.8095
    },
    {
      "name": "Fortis Escorts Hospital Jaipur",
      "type": "Private",
      "speciality": "Cardiology, Ortho",
      "rating": 4.5,
      "beds": 250,
      "address": "JLN Marg, Jaipur",
      "phone": "0141-2547000",
      "emergency": true,
      "lat": 26.8888,
      "lng": 75.8068
    },
    {
      "name": "Narayana Multispeciality Hospital",
      "type": "Private",
      "speciality": "Multi-Specialty",
      "rating": 4.4,
      "beds": 280,
      "address": "Sector 28, Pratap Nagar, Jaipur",
      "phone": "0141-6622222",
      "emergency": true,
      "lat": 26.8509,
      "lng": 75.778
    },
    {
      "name": "Manipal Hospital Jaipur",
      "type": "Private",
      "speciality": "Multi-Specialty",
      "rating": 4.5,
      "beds": 220,
      "address": "Sector 5, Vidhyadhar Nagar, Jaipur",
      "phone": "0141-5101000",
      "emergency": true,
      "lat": 26.9375,
      "lng": 75.7754
    }
  ],
  "lucknow": [
    {
      "name": "KGMU (King George's Medical University)",
      "type": "Government",
      "speciality": "Multi-Specialty, Teaching",
      "rating": 4.5,
      "beds": 3500,
      "address": "Shah Mina Road, Chowk, Lucknow",
      "phone": "0522-2257540",
      "emergency": true,
      "lat": 26.8537,
      "lng": 80.924
    },
    {
      "name": "SGPGIMS",
      "type": "Government",
      "speciality": "Multi-Specialty, Research",
      "rating": 4.7,
      "beds": 1200,
      "address": "Raebareli Road, Lucknow",
      "phone": "0522-2668004",
      "emergency": true,
      "lat": 26.765,
      "lng": 80.9943
    },
    {
      "name": "Medanta Hospital Lucknow",
      "type": "Private",
      "speciality": "Multi-Specialty",
      "rating": 4.6,
      "beds": 550,
      "address": "Shaheed Path, Lucknow",
      "phone": "0522-4505050",
      "emergency": true,
      "lat": 26.8041,
      "lng": 81.0168
    },
    {
      "name": "Apollo Hospital Lucknow",
      "type": "Private",
      "speciality": "Multi-Specialty",
      "rating": 4.4,
      "beds": 350,
      "address": "Kanpur Road, Lucknow",
      "phone": "0522-6670000",
      "emergency": true,
      "lat": 26.8277,
      "lng": 80.9083
    }
  ],
  "ahmedabad": [
    {
      "name": "Civil Hospital Ahmedabad",
      "type": "Government",
      "speciality": "Multi-Specialty, Trauma",
      "rating": 4.2,
      "beds": 2200,
      "address": "Asarwa, Ahmedabad",
      "phone": "079-22680281",
      "emergency": true,
      "lat": 23.049,
      "lng": 72.6045
    },
    {
      "name": "Sterling Hospital",
      "type": "Private",
      "speciality": "Multi-Specialty",
      "rating": 4.5,
      "beds": 400,
      "address": "Gurukul Road, Ahmedabad",
      "phone": "079-40011111",
      "emergency": true,
      "lat": 23.041,
      "lng": 72.545
    },
    {
      "name": "Apollo Hospital Ahmedabad",
      "type": "Private",
      "speciality": "Multi-Specialty",
      "rating": 4.5,
      "beds": 360,
      "address": "Gandhinagar Highway, Ahmedabad",
      "phone": "079-66701800",
      "emergency": true,
      "lat": 23.071,
      "lng": 72.5335
    },
    {
      "name": "HCG Cancer Centre",
      "type": "Private",
      "speciality": "Oncology, Cancer Treatment",
      "rating": 4.6,
      "beds": 200,
      "address": "Mithakhali, Ahmedabad",
      "phone": "079-40400400",
      "emergency": true,
      "lat": 23.0316,
      "lng": 72.557
    }
  ],
  "indore": [
    {
      "name": "MY Hospital",
      "type": "Government",
      "speciality": "Multi-Specialty",
      "rating": 4.1,
      "beds": 1400,
      "address": "MY Hospital Road, Indore",
      "phone": "0731-2527301",
      "emergency": true,
      "lat": 22.7169,
      "lng": 75.877
    },
    {
      "name": "Bombay Hospital Indore",
      "type": "Private",
      "speciality": "Multi-Specialty",
      "rating": 4.6,
      "beds": 600,
      "address": "Ring Road, Indore",
      "phone": "0731-2558866",
      "emergency": true,
      "lat": 22.7483,
      "lng": 75.908
    },
    {
      "name": "Choithram Hospital",
      "type": "Private",
      "speciality": "Multi-Specialty",
      "rating": 4.5,
      "beds": 350,
      "address": "Manik Bagh Road, Indore",
      "phone": "0731-2362491",
      "emergency": true,
      "lat": 22.6845,
      "lng": 75.856
    },
    {
      "name": "Medanta Super Specialty Hospital",
      "type": "Private",
      "speciality": "Cardiology, Oncology",
      "rating": 4.7,
      "beds": 175,
      "address": "Vijay Nagar, Indore",
      "phone": "0731-4747000",
      "emergency": true,
      "lat": 22.7533,
      "lng": 75.8937
    }
  ],
  "bhopal": [
    {
      "name": "AIIMS Bhopal",
      "type": "Government",
      "speciality": "Multi-Specialty, Research",
      "rating": 4.7,
      "beds": 960,
      "address": "Saket Nagar, Bhopal",
      "phone": "0755-2672355",
      "emergency": true,
      "lat": 23.2043,
      "lng": 77.4608
    },
    {
      "name": "Hamidia Hospital",
      "type": "Government",
      "speciality": "Multi-Specialty, Trauma",
      "rating": 4.0,
      "beds": 1200,
      "address": "Royal Market, Bhopal",
      "phone": "0755-2540590",
      "emergency": true,
      "lat": 23.2642,
      "lng": 77.3916
    },
    {
      "name": "Bansal Hospital",
      "type": "Private",
      "speciality": "Multi-Specialty",
      "rating": 4.6,
      "beds": 300,
      "address": "Shahpura, Bhopal",
      "phone": "0755-4086000",
      "emergency": true,
      "lat": 23.1897,
      "lng": 77.4334
    },
    {
      "name": "Chirayu Medical College & Hospital",
      "type": "Private",
      "speciality": "Multi-Specialty",
      "rating": 4.4,
      "beds": 900,
      "address": "Bairagarh, Bhopal",
      "phone": "0755-2709100",
      "emergency": true,
      "lat": 23.2754,
      "lng": 77.34
    }
  ],
  "chandigarh": [
    {
      "name": "PGIMER",
      "type": "Government",
      "speciality": "Multi-Specialty, Research",
      "rating": 4.8,
      "beds": 1948,
      "address": "Sector 12, Chandigarh",
      "phone": "0172-2746018",
      "emergency": true,
      "lat": 30.7634,
      "lng": 76.7649
    },
    {
      "name": "GMCH Sector 32",
      "type": "Government",
      "speciality": "Multi-Specialty",
      "rating": 4.5,
      "beds": 1000,
      "address": "Sector 32, Chandigarh",
      "phone": "0172-2601023",
      "emergency": true,
      "lat": 30.7161,
      "lng": 76.7865
    },
    {
      "name": "Fortis Hospital Mohali",
      "type": "Private",
      "speciality": "Multi-Specialty",
      "rating": 4.6,
      "beds": 344,
      "address": "Sector 62, Phase 8, Mohali",
      "phone": "0172-4692222",
      "emergency": true,
      "lat": 30.7046,
      "lng": 76.7179
    },
    {
      "name": "Max Super Speciality Hospital",
      "type": "Private",
      "speciality": "Multi-Specialty",
      "rating": 4.5,
      "beds": 200,
      "address": "Phase 6, Mohali",
      "phone": "0172-5212000",
      "emergency": true,
      "lat": 30.741,
      "lng": 76.7144
    }
  ],
  "kochi": [
    {
      "name": "Amrita Hospital",
      "type": "Private",
      "speciality": "Multi-Specialty, Transplant",
      "rating": 4.8,
      "beds": 1300,
      "address": "Edappally, Kochi",
      "phone": "0484-2851234",
      "emergency": true,
      "lat": 10.0384,
      "lng": 76.2974
    },
    {
      "name": "Aster Medcity",
      "type": "Private",
      "speciality": "Multi-Specialty, Robotics",
      "rating": 4.7,
      "beds": 670,
      "address": "Cheranalloor, Kochi",
      "phone": "0484-6699999",
      "emergency": true,
      "lat": 10.0577,
      "lng": 76.2736
    },
    {
      "name": "Lakeshore Hospital",
      "type": "Private",
      "speciality": "Gastroenterology, Oncology",
      "rating": 4.6,
      "beds": 350,
      "address": "Nettoor, Kochi",
      "phone": "0484-2701032",
      "emergency": true,
      "lat": 9.9288,
      "lng": 76.3151
    },
    {
      "name": "Ernakulam General Hospital",
      "type": "Government",
      "speciality": "General, Trauma",
      "rating": 4.3,
      "beds": 780,
      "address": "Hospital Road, Kochi",
      "phone": "0484-2361251",
      "emergency": true,
      "lat": 9.9702,
      "lng": 76.2801
    }
  ],
  "guwahati": [
    {
      "name": "Gauhati Medical College (GMCH)",
      "type": "Government",
      "speciality": "Multi-Specialty",
      "rating": 4.2,
      "beds": 2500,
      "address": "Bhangagarh, Guwahati",
      "phone": "0361-2326066",
      "emergency": true,
      "lat": 26.1554,
      "lng": 91.7709
    },
    {
      "name": "Apollo Excelcare Hospital",
      "type": "Private",
      "speciality": "Multi-Specialty",
      "rating": 4.5,
      "beds": 300,
      "address": "Paschim Boragaon, Guwahati",
      "phone": "0361-7140000",
      "emergency": true,
      "lat": 26.1265,
      "lng": 91.7231
    },
    {
      "name": "Narayana Superspeciality Hospital",
      "type": "Private",
      "speciality": "Cardiology, Neuro",
      "rating": 4.6,
      "beds": 380,
      "address": "Amingaon, Guwahati",
      "phone": "0361-2680000",
      "emergency": true,
      "lat": 26.1912,
      "lng": 91.6853
    },
    {
      "name": "Health City Hospital",
      "type": "Private",
      "speciality": "Multi-Specialty",
      "rating": 4.4,
      "beds": 250,
      "address": "Khanapara, Guwahati",
      "phone": "0361-2228888",
      "emergency": true,
      "lat": 26.1221,
      "lng": 91.8105
    }
  ],
  "agra": [
    {
      "name": "District Hospital Agra",
      "type": "Government",
      "speciality": "General, Trauma",
      "rating": 4.0,
      "beds": 341,
      "address": "Main Road, Agra",
      "phone": "0994-2830773",
      "emergency": true,
      "lat": 27.160989696458177,
      "lng": 78.00395036488433
    },
    {
      "name": "Apex Medical Center Agra",
      "type": "Private",
      "speciality": "Multi-Specialty",
      "rating": 4.0,
      "beds": 396,
      "address": "Sector 2, Agra",
      "phone": "0645-4185932",
      "emergency": false,
      "lat": 27.156465446725804,
      "lng": 77.98841697405464
    },
    {
      "name": "City Hospital",
      "type": "Private",
      "speciality": "Multi-Specialty",
      "rating": 4.8,
      "beds": 399,
      "address": "Sector 10, Agra",
      "phone": "0234-4163100",
      "emergency": true,
      "lat": 27.17435658198521,
      "lng": 78.0138931302225
    },
    {
      "name": "Apollo Clinic Superspecialty Agra",
      "type": "Private",
      "speciality": "Cardiology, Ortho",
      "rating": 4.2,
      "beds": 239,
      "address": "Sector 2, Agra",
      "phone": "0242-3033508",
      "emergency": false,
      "lat": 27.16686597780277,
      "lng": 78.01125351864597
    }
  ],
  "ajmer": [
    {
      "name": "District Hospital Ajmer",
      "type": "Government",
      "speciality": "General, Trauma",
      "rating": 3.8,
      "beds": 753,
      "address": "Main Road, Ajmer",
      "phone": "0826-2040560",
      "emergency": true,
      "lat": 26.435937711214258,
      "lng": 74.64988546923385
    },
    {
      "name": "Global Nursing Home",
      "type": "Private",
      "speciality": "Multi-Specialty",
      "rating": 4.5,
      "beds": 209,
      "address": "Sector 1, Ajmer",
      "phone": "0614-3466566",
      "emergency": true,
      "lat": 26.47897839795413,
      "lng": 74.63149866814835
    },
    {
      "name": "Fortis Satellite Hospital",
      "type": "Private",
      "speciality": "Emergency & General",
      "rating": 4.6,
      "beds": 373,
      "address": "Sector 12, Ajmer",
      "phone": "0948-4733596",
      "emergency": false,
      "lat": 26.447023519499897,
      "lng": 74.64376079020188
    },
    {
      "name": "Fortis Satellite Healthcare",
      "type": "Private",
      "speciality": "Maternity & General",
      "rating": 4.5,
      "beds": 296,
      "address": "Sector 10, Ajmer",
      "phone": "0657-3910139",
      "emergency": true,
      "lat": 26.427127922846157,
      "lng": 74.62378011547307
    }
  ],
  "aligarh": [
    {
      "name": "District Hospital Aligarh",
      "type": "Government",
      "speciality": "General, Trauma",
      "rating": 4.2,
      "beds": 372,
      "address": "Main Road, Aligarh",
      "phone": "0551-2114113",
      "emergency": true,
      "lat": 27.88202622757211,
      "lng": 78.10254958261831
    },
    {
      "name": "General Superspecialty",
      "type": "Private",
      "speciality": "Maternity & General",
      "rating": 4.4,
      "beds": 331,
      "address": "Sector 11, Aligarh",
      "phone": "0499-4360409",
      "emergency": true,
      "lat": 27.88698972031644,
      "lng": 78.11667541362617
    },
    {
      "name": "Fortis Satellite Nursing Home Aligarh",
      "type": "Private",
      "speciality": "Maternity & General",
      "rating": 4.4,
      "beds": 248,
      "address": "Sector 13, Aligarh",
      "phone": "0301-3763143",
      "emergency": true,
      "lat": 27.92656831105445,
      "lng": 78.11277272104569
    },
    {
      "name": "Care Medical Center",
      "type": "Private",
      "speciality": "Cardiology, Ortho",
      "rating": 4.1,
      "beds": 94,
      "address": "Sector 3, Aligarh",
      "phone": "0304-4461716",
      "emergency": true,
      "lat": 27.878833290893727,
      "lng": 78.0974874171044
    }
  ],
  "allahabad": [
    {
      "name": "District Hospital Allahabad",
      "type": "Government",
      "speciality": "General, Trauma",
      "rating": 4.3,
      "beds": 944,
      "address": "Main Road, Allahabad",
      "phone": "0781-2902581",
      "emergency": true,
      "lat": 25.445310524485322,
      "lng": 81.826433418123
    },
    {
      "name": "Life Healthcare",
      "type": "Private",
      "speciality": "Multi-Specialty",
      "rating": 4.1,
      "beds": 340,
      "address": "Sector 11, Allahabad",
      "phone": "0863-3874785",
      "emergency": true,
      "lat": 25.46253541842783,
      "lng": 81.85160691247575
    },
    {
      "name": "City Medical Center Allahabad",
      "type": "Private",
      "speciality": "Emergency & General",
      "rating": 4.5,
      "beds": 145,
      "address": "Sector 3, Allahabad",
      "phone": "0527-3331751",
      "emergency": false,
      "lat": 25.416615680179742,
      "lng": 81.83394339325736
    },
    {
      "name": "Care Superspecialty Allahabad",
      "type": "Private",
      "speciality": "Multi-Specialty",
      "rating": 4.1,
      "beds": 335,
      "address": "Sector 15, Allahabad",
      "phone": "0743-3517092",
      "emergency": true,
      "lat": 25.430556997911744,
      "lng": 81.82199298631762
    }
  ],
  "amravati": [
    {
      "name": "District Hospital Amravati",
      "type": "Government",
      "speciality": "General, Trauma",
      "rating": 3.9,
      "beds": 516,
      "address": "Main Road, Amravati",
      "phone": "0345-2425253",
      "emergency": true,
      "lat": 20.92989133263618,
      "lng": 77.74639438648545
    },
    {
      "name": "Fortis Satellite Medical Center Amravati",
      "type": "Private",
      "speciality": "Multi-Specialty",
      "rating": 4.4,
      "beds": 394,
      "address": "Sector 4, Amravati",
      "phone": "0395-3649211",
      "emergency": false,
      "lat": 20.909829217824303,
      "lng": 77.7319519293237
    },
    {
      "name": "Care Nursing Home",
      "type": "Private",
      "speciality": "General, Trauma",
      "rating": 4.2,
      "beds": 53,
      "address": "Sector 1, Amravati",
      "phone": "0435-4917817",
      "emergency": true,
      "lat": 20.948476734475705,
      "lng": 77.7704878551758
    },
    {
      "name": "General Medical Center",
      "type": "Private",
      "speciality": "Cardiology, Ortho",
      "rating": 4.5,
      "beds": 67,
      "address": "Sector 11, Amravati",
      "phone": "0474-3014848",
      "emergency": true,
      "lat": 20.903602000896914,
      "lng": 77.75968902056644
    }
  ],
  "amritsar": [
    {
      "name": "District Hospital Amritsar",
      "type": "Government",
      "speciality": "General, Trauma",
      "rating": 3.9,
      "beds": 548,
      "address": "Main Road, Amritsar",
      "phone": "0698-2217759",
      "emergency": true,
      "lat": 31.617431815683865,
      "lng": 74.85370693740336
    },
    {
      "name": "Apollo Clinic Medical Center",
      "type": "Private",
      "speciality": "Multi-Specialty",
      "rating": 4.2,
      "beds": 260,
      "address": "Sector 1, Amritsar",
      "phone": "0396-4619974",
      "emergency": false,
      "lat": 31.625947953739995,
      "lng": 74.8961030956046
    },
    {
      "name": "Global Healthcare Amritsar",
      "type": "Private",
      "speciality": "Multi-Specialty",
      "rating": 4.0,
      "beds": 159,
      "address": "Sector 13, Amritsar",
      "phone": "0633-4657237",
      "emergency": true,
      "lat": 31.648675843992585,
      "lng": 74.87017301746047
    },
    {
      "name": "Care Medical Center",
      "type": "Private",
      "speciality": "Cardiology, Ortho",
      "rating": 4.4,
      "beds": 52,
      "address": "Sector 10, Amritsar",
      "phone": "0285-3637539",
      "emergency": true,
      "lat": 31.650095655197713,
      "lng": 74.85858937799229
    }
  ],
  "anand": [
    {
      "name": "District Hospital Anand",
      "type": "Government",
      "speciality": "General, Trauma",
      "rating": 4.2,
      "beds": 443,
      "address": "Main Road, Anand",
      "phone": "0370-2159355",
      "emergency": true,
      "lat": 22.565558829759585,
      "lng": 72.93901696500005
    },
    {
      "name": "Apollo Clinic Superspecialty",
      "type": "Private",
      "speciality": "Maternity & General",
      "rating": 4.3,
      "beds": 295,
      "address": "Sector 4, Anand",
      "phone": "0952-4021884",
      "emergency": false,
      "lat": 22.543662011968976,
      "lng": 72.91939656062623
    },
    {
      "name": "Life Superspecialty Anand",
      "type": "Private",
      "speciality": "Multi-Specialty",
      "rating": 4.3,
      "beds": 95,
      "address": "Sector 13, Anand",
      "phone": "0587-3600144",
      "emergency": true,
      "lat": 22.574152885846367,
      "lng": 72.95766982068369
    },
    {
      "name": "Apex Hospital Anand",
      "type": "Private",
      "speciality": "Cardiology, Ortho",
      "rating": 4.3,
      "beds": 346,
      "address": "Sector 10, Anand",
      "phone": "0762-4771824",
      "emergency": true,
      "lat": 22.559690118435856,
      "lng": 72.92553755818689
    }
  ],
  "asansol": [
    {
      "name": "District Hospital Asansol",
      "type": "Government",
      "speciality": "General, Trauma",
      "rating": 4.3,
      "beds": 848,
      "address": "Main Road, Asansol",
      "phone": "0193-2588542",
      "emergency": true,
      "lat": 23.683632142433876,
      "lng": 86.93554064578515
    },
    {
      "name": "Life Healthcare",
      "type": "Private",
      "speciality": "Multi-Specialty",
      "rating": 4.5,
      "beds": 351,
      "address": "Sector 12, Asansol",
      "phone": "0157-4676303",
      "emergency": true,
      "lat": 23.67301475980777,
      "lng": 86.96991570512661
    },
    {
      "name": "Apollo Clinic Medical Center Asansol",
      "type": "Private",
      "speciality": "Multi-Specialty",
      "rating": 4.6,
      "beds": 285,
      "address": "Sector 14, Asansol",
      "phone": "0336-4686392",
      "emergency": false,
      "lat": 23.67754734269222,
      "lng": 86.9364847396109
    },
    {
      "name": "Global Hospital Asansol",
      "type": "Private",
      "speciality": "Multi-Specialty",
      "rating": 4.7,
      "beds": 80,
      "address": "Sector 2, Asansol",
      "phone": "0553-4858188",
      "emergency": true,
      "lat": 23.651573086707998,
      "lng": 86.97698965747323
    }
  ],
  "aurangabad": [
    {
      "name": "District Hospital Aurangabad",
      "type": "Government",
      "speciality": "General, Trauma",
      "rating": 3.6,
      "beds": 336,
      "address": "Main Road, Aurangabad",
      "phone": "0990-2972674",
      "emergency": true,
      "lat": 19.860902784503097,
      "lng": 75.35703024509111
    },
    {
      "name": "City Nursing Home Aurangabad",
      "type": "Private",
      "speciality": "Emergency & General",
      "rating": 4.4,
      "beds": 376,
      "address": "Sector 6, Aurangabad",
      "phone": "0184-3704608",
      "emergency": true,
      "lat": 19.855438281822206,
      "lng": 75.32596428769274
    },
    {
      "name": "Global Nursing Home Aurangabad",
      "type": "Private",
      "speciality": "Maternity & General",
      "rating": 4.7,
      "beds": 108,
      "address": "Sector 8, Aurangabad",
      "phone": "0547-3199167",
      "emergency": true,
      "lat": 19.853257264505704,
      "lng": 75.36985776919857
    },
    {
      "name": "Life Healthcare Aurangabad",
      "type": "Private",
      "speciality": "Emergency & General",
      "rating": 4.8,
      "beds": 107,
      "address": "Sector 12, Aurangabad",
      "phone": "0139-3488306",
      "emergency": false,
      "lat": 19.887845642005217,
      "lng": 75.36199527214737
    }
  ],
  "bareilly": [
    {
      "name": "District Hospital Bareilly",
      "type": "Government",
      "speciality": "General, Trauma",
      "rating": 4.1,
      "beds": 444,
      "address": "Main Road, Bareilly",
      "phone": "0344-2512182",
      "emergency": true,
      "lat": 28.3651576849392,
      "lng": 79.4438873143041
    },
    {
      "name": "Life Nursing Home Bareilly",
      "type": "Private",
      "speciality": "Maternity & General",
      "rating": 4.2,
      "beds": 83,
      "address": "Sector 3, Bareilly",
      "phone": "0781-3786223",
      "emergency": false,
      "lat": 28.38726442339937,
      "lng": 79.4382436113722
    },
    {
      "name": "General Medical Center",
      "type": "Private",
      "speciality": "Cardiology, Ortho",
      "rating": 4.5,
      "beds": 232,
      "address": "Sector 5, Bareilly",
      "phone": "0542-3201910",
      "emergency": true,
      "lat": 28.386122471694573,
      "lng": 79.42951212463828
    },
    {
      "name": "Fortis Satellite Superspecialty Bareilly",
      "type": "Private",
      "speciality": "Multi-Specialty",
      "rating": 4.4,
      "beds": 375,
      "address": "Sector 4, Bareilly",
      "phone": "0907-3379716",
      "emergency": true,
      "lat": 28.35470923782752,
      "lng": 79.41569970935926
    }
  ],
  "belgaum": [
    {
      "name": "District Hospital Belgaum",
      "type": "Government",
      "speciality": "General, Trauma",
      "rating": 3.7,
      "beds": 676,
      "address": "Main Road, Belgaum",
      "phone": "0558-2844835",
      "emergency": true,
      "lat": 15.855684467905167,
      "lng": 74.50201570168436
    },
    {
      "name": "Fortis Satellite Medical Center",
      "type": "Private",
      "speciality": "General, Trauma",
      "rating": 4.4,
      "beds": 366,
      "address": "Sector 2, Belgaum",
      "phone": "0890-4399483",
      "emergency": true,
      "lat": 15.863429355322726,
      "lng": 74.51189674996715
    },
    {
      "name": "Fortis Satellite Medical Center Belgaum",
      "type": "Private",
      "speciality": "Maternity & General",
      "rating": 4.3,
      "beds": 156,
      "address": "Sector 14, Belgaum",
      "phone": "0192-4348885",
      "emergency": true,
      "lat": 15.86727414453192,
      "lng": 74.5234189561447
    },
    {
      "name": "Care Healthcare Belgaum",
      "type": "Private",
      "speciality": "Multi-Specialty",
      "rating": 4.5,
      "beds": 102,
      "address": "Sector 13, Belgaum",
      "phone": "0174-3900106",
      "emergency": true,
      "lat": 15.822413011547019,
      "lng": 74.48524649213662
    }
  ],
  "bhavnagar": [
    {
      "name": "District Hospital Bhavnagar",
      "type": "Government",
      "speciality": "General, Trauma",
      "rating": 3.8,
      "beds": 656,
      "address": "Main Road, Bhavnagar",
      "phone": "0388-2370478",
      "emergency": true,
      "lat": 21.774811825221963,
      "lng": 72.16081009590178
    },
    {
      "name": "General Nursing Home",
      "type": "Private",
      "speciality": "General, Trauma",
      "rating": 4.7,
      "beds": 162,
      "address": "Sector 7, Bhavnagar",
      "phone": "0322-4136611",
      "emergency": true,
      "lat": 21.73728937325944,
      "lng": 72.17091179082992
    },
    {
      "name": "Fortis Satellite Healthcare",
      "type": "Private",
      "speciality": "Multi-Specialty",
      "rating": 4.7,
      "beds": 327,
      "address": "Sector 4, Bhavnagar",
      "phone": "0946-3123307",
      "emergency": false,
      "lat": 21.736940843837044,
      "lng": 72.14945199216358
    },
    {
      "name": "Global Healthcare",
      "type": "Private",
      "speciality": "General, Trauma",
      "rating": 4.3,
      "beds": 223,
      "address": "Sector 14, Bhavnagar",
      "phone": "0895-3470303",
      "emergency": true,
      "lat": 21.79376134479176,
      "lng": 72.16936576326226
    }
  ],
  "bhiwandi": [
    {
      "name": "District Hospital Bhiwandi",
      "type": "Government",
      "speciality": "General, Trauma",
      "rating": 3.9,
      "beds": 778,
      "address": "Main Road, Bhiwandi",
      "phone": "0939-2931646",
      "emergency": true,
      "lat": 19.3008841283872,
      "lng": 73.04461889316165
    },
    {
      "name": "General Nursing Home",
      "type": "Private",
      "speciality": "Emergency & General",
      "rating": 4.0,
      "beds": 93,
      "address": "Sector 6, Bhiwandi",
      "phone": "0430-4237450",
      "emergency": false,
      "lat": 19.2721183248828,
      "lng": 73.07481170961296
    },
    {
      "name": "City Hospital",
      "type": "Private",
      "speciality": "Maternity & General",
      "rating": 4.4,
      "beds": 275,
      "address": "Sector 15, Bhiwandi",
      "phone": "0193-4107701",
      "emergency": true,
      "lat": 19.305028973409645,
      "lng": 73.02588564855667
    },
    {
      "name": "Care Nursing Home",
      "type": "Private",
      "speciality": "Cardiology, Ortho",
      "rating": 4.6,
      "beds": 357,
      "address": "Sector 11, Bhiwandi",
      "phone": "0517-4918032",
      "emergency": true,
      "lat": 19.288764575038407,
      "lng": 73.0266797092135
    }
  ],
  "bhubaneswar": [
    {
      "name": "District Hospital Bhubaneswar",
      "type": "Government",
      "speciality": "General, Trauma",
      "rating": 4.2,
      "beds": 513,
      "address": "Main Road, Bhubaneswar",
      "phone": "0975-2072781",
      "emergency": true,
      "lat": 20.300612492652263,
      "lng": 85.82991132802533
    },
    {
      "name": "Apex Nursing Home",
      "type": "Private",
      "speciality": "Multi-Specialty",
      "rating": 4.4,
      "beds": 248,
      "address": "Sector 2, Bhubaneswar",
      "phone": "0501-3768738",
      "emergency": true,
      "lat": 20.28843877081321,
      "lng": 85.84430183858342
    },
    {
      "name": "Metro Medical Center",
      "type": "Private",
      "speciality": "General, Trauma",
      "rating": 4.4,
      "beds": 113,
      "address": "Sector 2, Bhubaneswar",
      "phone": "0408-3772816",
      "emergency": true,
      "lat": 20.267583283161823,
      "lng": 85.83041560490177
    },
    {
      "name": "Global Hospital Bhubaneswar",
      "type": "Private",
      "speciality": "Multi-Specialty",
      "rating": 4.2,
      "beds": 96,
      "address": "Sector 4, Bhubaneswar",
      "phone": "0197-4595000",
      "emergency": true,
      "lat": 20.270249233986355,
      "lng": 85.8316814930112
    }
  ],
  "bikaner": [
    {
      "name": "District Hospital Bikaner",
      "type": "Government",
      "speciality": "General, Trauma",
      "rating": 4.1,
      "beds": 931,
      "address": "Main Road, Bikaner",
      "phone": "0719-2546510",
      "emergency": true,
      "lat": 28.038746759189163,
      "lng": 73.30212514462782
    },
    {
      "name": "Sanjeevani Nursing Home Bikaner",
      "type": "Private",
      "speciality": "Cardiology, Ortho",
      "rating": 4.6,
      "beds": 107,
      "address": "Sector 8, Bikaner",
      "phone": "0340-4739937",
      "emergency": true,
      "lat": 28.044435038272027,
      "lng": 73.30463057376912
    },
    {
      "name": "Apex Hospital Bikaner",
      "type": "Private",
      "speciality": "Cardiology, Ortho",
      "rating": 4.5,
      "beds": 305,
      "address": "Sector 4, Bikaner",
      "phone": "0260-4523330",
      "emergency": true,
      "lat": 28.017544667409663,
      "lng": 73.29862736160737
    },
    {
      "name": "Fortis Satellite Nursing Home",
      "type": "Private",
      "speciality": "Emergency & General",
      "rating": 4.4,
      "beds": 181,
      "address": "Sector 13, Bikaner",
      "phone": "0864-4254238",
      "emergency": true,
      "lat": 28.04169227519791,
      "lng": 73.31275339046496
    }
  ],
  "bokaro": [
    {
      "name": "District Hospital Bokaro",
      "type": "Government",
      "speciality": "General, Trauma",
      "rating": 4.2,
      "beds": 728,
      "address": "Main Road, Bokaro",
      "phone": "0430-2538767",
      "emergency": true,
      "lat": 23.789067116276673,
      "lng": 85.98263115419275
    },
    {
      "name": "City Healthcare",
      "type": "Private",
      "speciality": "Multi-Specialty",
      "rating": 4.6,
      "beds": 254,
      "address": "Sector 7, Bokaro",
      "phone": "0404-3860685",
      "emergency": false,
      "lat": 23.801907812725634,
      "lng": 86.01011880754172
    },
    {
      "name": "Metro Medical Center Bokaro",
      "type": "Private",
      "speciality": "Multi-Specialty",
      "rating": 4.1,
      "beds": 62,
      "address": "Sector 6, Bokaro",
      "phone": "0665-3722374",
      "emergency": true,
      "lat": 23.815595970574734,
      "lng": 85.98319899952587
    },
    {
      "name": "Care Medical Center Bokaro",
      "type": "Private",
      "speciality": "Emergency & General",
      "rating": 4.7,
      "beds": 315,
      "address": "Sector 2, Bokaro",
      "phone": "0965-3526053",
      "emergency": false,
      "lat": 23.820318333607062,
      "lng": 85.98408251914108
    }
  ],
  "cuttack": [
    {
      "name": "District Hospital Cuttack",
      "type": "Government",
      "speciality": "General, Trauma",
      "rating": 4.0,
      "beds": 490,
      "address": "Main Road, Cuttack",
      "phone": "0646-2846157",
      "emergency": true,
      "lat": 20.452593544080035,
      "lng": 85.86378695310096
    },
    {
      "name": "Global Healthcare",
      "type": "Private",
      "speciality": "Cardiology, Ortho",
      "rating": 4.4,
      "beds": 98,
      "address": "Sector 10, Cuttack",
      "phone": "0783-3183402",
      "emergency": true,
      "lat": 20.44496569351518,
      "lng": 85.89291951825273
    },
    {
      "name": "General Nursing Home",
      "type": "Private",
      "speciality": "General, Trauma",
      "rating": 4.3,
      "beds": 87,
      "address": "Sector 12, Cuttack",
      "phone": "0799-3312484",
      "emergency": true,
      "lat": 20.461699537988896,
      "lng": 85.86114746369601
    },
    {
      "name": "General Superspecialty Cuttack",
      "type": "Private",
      "speciality": "Multi-Specialty",
      "rating": 4.8,
      "beds": 328,
      "address": "Sector 9, Cuttack",
      "phone": "0567-3898905",
      "emergency": true,
      "lat": 20.474465007465664,
      "lng": 85.9099290551702
    }
  ],
  "dehradun": [
    {
      "name": "District Hospital Dehradun",
      "type": "Government",
      "speciality": "General, Trauma",
      "rating": 4.0,
      "beds": 994,
      "address": "Main Road, Dehradun",
      "phone": "0775-2110165",
      "emergency": true,
      "lat": 30.33023304516546,
      "lng": 78.02731135875909
    },
    {
      "name": "Apollo Clinic Hospital Dehradun",
      "type": "Private",
      "speciality": "Multi-Specialty",
      "rating": 4.0,
      "beds": 394,
      "address": "Sector 10, Dehradun",
      "phone": "0384-4448287",
      "emergency": false,
      "lat": 30.287016341669357,
      "lng": 78.04803547611458
    },
    {
      "name": "Apex Medical Center",
      "type": "Private",
      "speciality": "General, Trauma",
      "rating": 4.3,
      "beds": 350,
      "address": "Sector 7, Dehradun",
      "phone": "0223-3754278",
      "emergency": true,
      "lat": 30.321848400325614,
      "lng": 78.01174016863355
    },
    {
      "name": "General Hospital",
      "type": "Private",
      "speciality": "Maternity & General",
      "rating": 4.2,
      "beds": 332,
      "address": "Sector 5, Dehradun",
      "phone": "0742-4032458",
      "emergency": false,
      "lat": 30.311472582629335,
      "lng": 78.01482187506922
    }
  ],
  "dhanbad": [
    {
      "name": "District Hospital Dhanbad",
      "type": "Government",
      "speciality": "General, Trauma",
      "rating": 4.1,
      "beds": 655,
      "address": "Main Road, Dhanbad",
      "phone": "0284-2908933",
      "emergency": true,
      "lat": 23.78605354518297,
      "lng": 86.4365897761451
    },
    {
      "name": "Fortis Satellite Superspecialty Dhanbad",
      "type": "Private",
      "speciality": "Multi-Specialty",
      "rating": 4.2,
      "beds": 316,
      "address": "Sector 3, Dhanbad",
      "phone": "0630-4778024",
      "emergency": true,
      "lat": 23.802324133785042,
      "lng": 86.41072318626824
    },
    {
      "name": "Apex Nursing Home",
      "type": "Private",
      "speciality": "Multi-Specialty",
      "rating": 4.4,
      "beds": 111,
      "address": "Sector 11, Dhanbad",
      "phone": "0212-4727140",
      "emergency": true,
      "lat": 23.81322019270578,
      "lng": 86.44591848104072
    },
    {
      "name": "City Nursing Home",
      "type": "Private",
      "speciality": "Cardiology, Ortho",
      "rating": 4.7,
      "beds": 284,
      "address": "Sector 13, Dhanbad",
      "phone": "0335-3837680",
      "emergency": true,
      "lat": 23.80844524449546,
      "lng": 86.4028642529645
    }
  ],
  "durgapur": [
    {
      "name": "District Hospital Durgapur",
      "type": "Government",
      "speciality": "General, Trauma",
      "rating": 3.9,
      "beds": 376,
      "address": "Main Road, Durgapur",
      "phone": "0470-2560640",
      "emergency": true,
      "lat": 23.538800952800493,
      "lng": 87.31085581768512
    },
    {
      "name": "Global Medical Center Durgapur",
      "type": "Private",
      "speciality": "Emergency & General",
      "rating": 4.2,
      "beds": 262,
      "address": "Sector 12, Durgapur",
      "phone": "0169-3475934",
      "emergency": true,
      "lat": 23.54612502095725,
      "lng": 87.2846366504078
    },
    {
      "name": "Apollo Clinic Healthcare",
      "type": "Private",
      "speciality": "Cardiology, Ortho",
      "rating": 4.5,
      "beds": 196,
      "address": "Sector 15, Durgapur",
      "phone": "0656-3408747",
      "emergency": true,
      "lat": 23.50146194518917,
      "lng": 87.30726895055413
    },
    {
      "name": "Sanjeevani Healthcare",
      "type": "Private",
      "speciality": "Multi-Specialty",
      "rating": 4.4,
      "beds": 333,
      "address": "Sector 7, Durgapur",
      "phone": "0934-3710135",
      "emergency": false,
      "lat": 23.51260803706092,
      "lng": 87.31195683451861
    }
  ],
  "erode": [
    {
      "name": "District Hospital Erode",
      "type": "Government",
      "speciality": "General, Trauma",
      "rating": 3.6,
      "beds": 865,
      "address": "Main Road, Erode",
      "phone": "0729-2294553",
      "emergency": true,
      "lat": 11.357111771861923,
      "lng": 77.70737887114221
    },
    {
      "name": "Life Nursing Home Erode",
      "type": "Private",
      "speciality": "General, Trauma",
      "rating": 4.2,
      "beds": 111,
      "address": "Sector 1, Erode",
      "phone": "0836-3619746",
      "emergency": true,
      "lat": 11.344398989134172,
      "lng": 77.69429313645072
    },
    {
      "name": "Global Nursing Home",
      "type": "Private",
      "speciality": "Multi-Specialty",
      "rating": 4.5,
      "beds": 318,
      "address": "Sector 8, Erode",
      "phone": "0575-4981453",
      "emergency": true,
      "lat": 11.329747454899026,
      "lng": 77.72191246803955
    },
    {
      "name": "Apollo Clinic Nursing Home",
      "type": "Private",
      "speciality": "Maternity & General",
      "rating": 4.0,
      "beds": 268,
      "address": "Sector 10, Erode",
      "phone": "0867-4213812",
      "emergency": false,
      "lat": 11.315327004086631,
      "lng": 77.69893372530734
    }
  ],
  "faridabad": [
    {
      "name": "District Hospital Faridabad",
      "type": "Government",
      "speciality": "General, Trauma",
      "rating": 3.9,
      "beds": 702,
      "address": "Main Road, Faridabad",
      "phone": "0584-2487718",
      "emergency": true,
      "lat": 28.420573924156376,
      "lng": 77.32425663771758
    },
    {
      "name": "Sanjeevani Hospital Faridabad",
      "type": "Private",
      "speciality": "Emergency & General",
      "rating": 4.7,
      "beds": 262,
      "address": "Sector 6, Faridabad",
      "phone": "0357-3040318",
      "emergency": true,
      "lat": 28.400080374058003,
      "lng": 77.30344090698078
    },
    {
      "name": "Apex Hospital Faridabad",
      "type": "Private",
      "speciality": "General, Trauma",
      "rating": 4.8,
      "beds": 96,
      "address": "Sector 8, Faridabad",
      "phone": "0366-3872577",
      "emergency": false,
      "lat": 28.40085799136907,
      "lng": 77.32613486248961
    },
    {
      "name": "Apollo Clinic Medical Center",
      "type": "Private",
      "speciality": "Multi-Specialty",
      "rating": 4.0,
      "beds": 299,
      "address": "Sector 8, Faridabad",
      "phone": "0214-4238370",
      "emergency": true,
      "lat": 28.38244250642722,
      "lng": 77.30261294407701
    }
  ],
  "firozabad": [
    {
      "name": "District Hospital Firozabad",
      "type": "Government",
      "speciality": "General, Trauma",
      "rating": 4.3,
      "beds": 997,
      "address": "Main Road, Firozabad",
      "phone": "0845-2969564",
      "emergency": true,
      "lat": 27.150507556435173,
      "lng": 78.38489447795642
    },
    {
      "name": "Global Hospital",
      "type": "Private",
      "speciality": "Maternity & General",
      "rating": 4.0,
      "beds": 252,
      "address": "Sector 7, Firozabad",
      "phone": "0762-3995059",
      "emergency": true,
      "lat": 27.18800633777151,
      "lng": 78.40575100508468
    },
    {
      "name": "Care Healthcare Firozabad",
      "type": "Private",
      "speciality": "General, Trauma",
      "rating": 4.7,
      "beds": 53,
      "address": "Sector 7, Firozabad",
      "phone": "0298-3384165",
      "emergency": true,
      "lat": 27.1701888832697,
      "lng": 78.41078619854915
    },
    {
      "name": "Global Hospital Firozabad",
      "type": "Private",
      "speciality": "General, Trauma",
      "rating": 4.8,
      "beds": 334,
      "address": "Sector 6, Firozabad",
      "phone": "0863-4458391",
      "emergency": true,
      "lat": 27.16751619908182,
      "lng": 78.403736399787
    }
  ],
  "gandhinagar": [
    {
      "name": "District Hospital Gandhinagar",
      "type": "Government",
      "speciality": "General, Trauma",
      "rating": 4.2,
      "beds": 389,
      "address": "Main Road, Gandhinagar",
      "phone": "0919-2872813",
      "emergency": true,
      "lat": 23.224044758655783,
      "lng": 72.64118356902871
    },
    {
      "name": "Apollo Clinic Superspecialty",
      "type": "Private",
      "speciality": "General, Trauma",
      "rating": 4.4,
      "beds": 293,
      "address": "Sector 3, Gandhinagar",
      "phone": "0130-3288457",
      "emergency": true,
      "lat": 23.225790234643533,
      "lng": 72.63122802762507
    },
    {
      "name": "General Medical Center Gandhinagar",
      "type": "Private",
      "speciality": "Emergency & General",
      "rating": 4.4,
      "beds": 146,
      "address": "Sector 7, Gandhinagar",
      "phone": "0581-4460900",
      "emergency": true,
      "lat": 23.207507371797558,
      "lng": 72.60781459741185
    },
    {
      "name": "Care Medical Center",
      "type": "Private",
      "speciality": "Maternity & General",
      "rating": 4.1,
      "beds": 155,
      "address": "Sector 12, Gandhinagar",
      "phone": "0841-3227162",
      "emergency": true,
      "lat": 23.22881329397482,
      "lng": 72.63623282997769
    }
  ],
  "gaya": [
    {
      "name": "District Hospital Gaya",
      "type": "Government",
      "speciality": "General, Trauma",
      "rating": 4.3,
      "beds": 330,
      "address": "Main Road, Gaya",
      "phone": "0460-2887641",
      "emergency": true,
      "lat": 24.772461611134432,
      "lng": 85.01524445731947
    },
    {
      "name": "Apollo Clinic Superspecialty",
      "type": "Private",
      "speciality": "General, Trauma",
      "rating": 4.2,
      "beds": 55,
      "address": "Sector 6, Gaya",
      "phone": "0360-3897517",
      "emergency": false,
      "lat": 24.76874916252371,
      "lng": 84.97259687569141
    },
    {
      "name": "Life Superspecialty Gaya",
      "type": "Private",
      "speciality": "Emergency & General",
      "rating": 4.3,
      "beds": 198,
      "address": "Sector 3, Gaya",
      "phone": "0452-4947726",
      "emergency": false,
      "lat": 24.801623762364223,
      "lng": 85.02253593436949
    },
    {
      "name": "Apex Medical Center Gaya",
      "type": "Private",
      "speciality": "General, Trauma",
      "rating": 4.1,
      "beds": 395,
      "address": "Sector 15, Gaya",
      "phone": "0216-4760920",
      "emergency": true,
      "lat": 24.81960124652549,
      "lng": 85.00750205547392
    }
  ],
  "ghaziabad": [
    {
      "name": "District Hospital Ghaziabad",
      "type": "Government",
      "speciality": "General, Trauma",
      "rating": 3.9,
      "beds": 617,
      "address": "Main Road, Ghaziabad",
      "phone": "0551-2031324",
      "emergency": true,
      "lat": 28.649854363396628,
      "lng": 77.44243287839042
    },
    {
      "name": "Life Healthcare",
      "type": "Private",
      "speciality": "Multi-Specialty",
      "rating": 4.6,
      "beds": 177,
      "address": "Sector 3, Ghaziabad",
      "phone": "0803-4143026",
      "emergency": false,
      "lat": 28.650236823666532,
      "lng": 77.46732076919692
    },
    {
      "name": "Fortis Satellite Healthcare",
      "type": "Private",
      "speciality": "Maternity & General",
      "rating": 4.4,
      "beds": 327,
      "address": "Sector 15, Ghaziabad",
      "phone": "0150-3490605",
      "emergency": true,
      "lat": 28.667563561950782,
      "lng": 77.42797034746138
    },
    {
      "name": "City Medical Center",
      "type": "Private",
      "speciality": "Multi-Specialty",
      "rating": 4.4,
      "beds": 172,
      "address": "Sector 10, Ghaziabad",
      "phone": "0704-4796356",
      "emergency": true,
      "lat": 28.648271080467513,
      "lng": 77.42840876914595
    }
  ],
  "gorakhpur": [
    {
      "name": "District Hospital Gorakhpur",
      "type": "Government",
      "speciality": "General, Trauma",
      "rating": 4.1,
      "beds": 394,
      "address": "Main Road, Gorakhpur",
      "phone": "0264-2973990",
      "emergency": true,
      "lat": 26.753707716921433,
      "lng": 83.35871357099089
    },
    {
      "name": "Sanjeevani Nursing Home",
      "type": "Private",
      "speciality": "Cardiology, Ortho",
      "rating": 4.4,
      "beds": 156,
      "address": "Sector 1, Gorakhpur",
      "phone": "0922-3895119",
      "emergency": true,
      "lat": 26.73434813916704,
      "lng": 83.36306956315404
    },
    {
      "name": "General Superspecialty Gorakhpur",
      "type": "Private",
      "speciality": "Maternity & General",
      "rating": 4.6,
      "beds": 343,
      "address": "Sector 2, Gorakhpur",
      "phone": "0836-3691568",
      "emergency": true,
      "lat": 26.741106274661472,
      "lng": 83.39153084767545
    },
    {
      "name": "Apollo Clinic Healthcare",
      "type": "Private",
      "speciality": "Maternity & General",
      "rating": 4.5,
      "beds": 63,
      "address": "Sector 3, Gorakhpur",
      "phone": "0286-3962038",
      "emergency": true,
      "lat": 26.745665266200824,
      "lng": 83.35226811370391
    }
  ],
  "gulbarga": [
    {
      "name": "District Hospital Gulbarga",
      "type": "Government",
      "speciality": "General, Trauma",
      "rating": 3.6,
      "beds": 918,
      "address": "Main Road, Gulbarga",
      "phone": "0545-2160492",
      "emergency": true,
      "lat": 17.332789759094133,
      "lng": 76.84151349466461
    },
    {
      "name": "Sanjeevani Hospital",
      "type": "Private",
      "speciality": "Maternity & General",
      "rating": 4.3,
      "beds": 75,
      "address": "Sector 14, Gulbarga",
      "phone": "0863-4111905",
      "emergency": true,
      "lat": 17.34023624216136,
      "lng": 76.83309613441347
    },
    {
      "name": "General Hospital Gulbarga",
      "type": "Private",
      "speciality": "Emergency & General",
      "rating": 4.3,
      "beds": 187,
      "address": "Sector 2, Gulbarga",
      "phone": "0117-4266691",
      "emergency": true,
      "lat": 17.315977249375344,
      "lng": 76.82372564229817
    },
    {
      "name": "Apollo Clinic Healthcare Gulbarga",
      "type": "Private",
      "speciality": "Multi-Specialty",
      "rating": 4.1,
      "beds": 143,
      "address": "Sector 11, Gulbarga",
      "phone": "0319-4930240",
      "emergency": true,
      "lat": 17.301742125259366,
      "lng": 76.822934579929
    }
  ],
  "guntur": [
    {
      "name": "District Hospital Guntur",
      "type": "Government",
      "speciality": "General, Trauma",
      "rating": 3.6,
      "beds": 603,
      "address": "Main Road, Guntur",
      "phone": "0290-2115561",
      "emergency": true,
      "lat": 16.295571527827246,
      "lng": 80.45330519529116
    },
    {
      "name": "City Hospital Guntur",
      "type": "Private",
      "speciality": "General, Trauma",
      "rating": 4.5,
      "beds": 81,
      "address": "Sector 12, Guntur",
      "phone": "0913-3356625",
      "emergency": true,
      "lat": 16.328474345414545,
      "lng": 80.4361817760527
    },
    {
      "name": "Global Hospital",
      "type": "Private",
      "speciality": "Maternity & General",
      "rating": 4.6,
      "beds": 386,
      "address": "Sector 2, Guntur",
      "phone": "0868-4321966",
      "emergency": true,
      "lat": 16.307148316324035,
      "lng": 80.43909096746405
    },
    {
      "name": "Sanjeevani Healthcare Guntur",
      "type": "Private",
      "speciality": "General, Trauma",
      "rating": 4.2,
      "beds": 261,
      "address": "Sector 11, Guntur",
      "phone": "0484-3349369",
      "emergency": true,
      "lat": 16.328076889744278,
      "lng": 80.43937963320596
    }
  ],
  "gwalior": [
    {
      "name": "District Hospital Gwalior",
      "type": "Government",
      "speciality": "General, Trauma",
      "rating": 3.6,
      "beds": 880,
      "address": "Main Road, Gwalior",
      "phone": "0362-2495802",
      "emergency": true,
      "lat": 26.214978451962168,
      "lng": 78.17757906251427
    },
    {
      "name": "Fortis Satellite Medical Center",
      "type": "Private",
      "speciality": "Cardiology, Ortho",
      "rating": 4.3,
      "beds": 268,
      "address": "Sector 13, Gwalior",
      "phone": "0855-4974016",
      "emergency": false,
      "lat": 26.211926716547747,
      "lng": 78.17696640479271
    },
    {
      "name": "General Healthcare Gwalior",
      "type": "Private",
      "speciality": "Maternity & General",
      "rating": 4.7,
      "beds": 171,
      "address": "Sector 10, Gwalior",
      "phone": "0312-4771312",
      "emergency": true,
      "lat": 26.197222693563297,
      "lng": 78.1611859006503
    },
    {
      "name": "Metro Nursing Home",
      "type": "Private",
      "speciality": "Maternity & General",
      "rating": 4.6,
      "beds": 303,
      "address": "Sector 12, Gwalior",
      "phone": "0359-4969394",
      "emergency": true,
      "lat": 26.209278291745807,
      "lng": 78.19435199350286
    }
  ],
  "howrah": [
    {
      "name": "District Hospital Howrah",
      "type": "Government",
      "speciality": "General, Trauma",
      "rating": 3.8,
      "beds": 912,
      "address": "Main Road, Howrah",
      "phone": "0494-2259156",
      "emergency": true,
      "lat": 22.58974524946497,
      "lng": 88.32699862841014
    },
    {
      "name": "Life Hospital Howrah",
      "type": "Private",
      "speciality": "Cardiology, Ortho",
      "rating": 4.7,
      "beds": 367,
      "address": "Sector 5, Howrah",
      "phone": "0235-3511041",
      "emergency": false,
      "lat": 22.575107741212015,
      "lng": 88.31887160312337
    },
    {
      "name": "Global Superspecialty",
      "type": "Private",
      "speciality": "Multi-Specialty",
      "rating": 4.4,
      "beds": 312,
      "address": "Sector 4, Howrah",
      "phone": "0537-4935555",
      "emergency": false,
      "lat": 22.571563987989272,
      "lng": 88.28282165325295
    },
    {
      "name": "Fortis Satellite Hospital",
      "type": "Private",
      "speciality": "Multi-Specialty",
      "rating": 4.3,
      "beds": 194,
      "address": "Sector 4, Howrah",
      "phone": "0926-4672951",
      "emergency": true,
      "lat": 22.609025289622345,
      "lng": 88.30810427013606
    }
  ],
  "hubli": [
    {
      "name": "District Hospital Hubli",
      "type": "Government",
      "speciality": "General, Trauma",
      "rating": 3.6,
      "beds": 726,
      "address": "Main Road, Hubli",
      "phone": "0524-2616488",
      "emergency": true,
      "lat": 15.37164596460324,
      "lng": 75.1316268437406
    },
    {
      "name": "General Healthcare Hubli",
      "type": "Private",
      "speciality": "Maternity & General",
      "rating": 4.2,
      "beds": 260,
      "address": "Sector 13, Hubli",
      "phone": "0354-3475397",
      "emergency": true,
      "lat": 15.371361904603011,
      "lng": 75.14889939907899
    },
    {
      "name": "Care Medical Center",
      "type": "Private",
      "speciality": "General, Trauma",
      "rating": 4.0,
      "beds": 76,
      "address": "Sector 1, Hubli",
      "phone": "0905-3319283",
      "emergency": true,
      "lat": 15.369214710735285,
      "lng": 75.11878485975757
    },
    {
      "name": "Global Medical Center Hubli",
      "type": "Private",
      "speciality": "Multi-Specialty",
      "rating": 4.0,
      "beds": 174,
      "address": "Sector 7, Hubli",
      "phone": "0481-3198758",
      "emergency": true,
      "lat": 15.347279746948855,
      "lng": 75.09916938434593
    }
  ],
  "jabalpur": [
    {
      "name": "District Hospital Jabalpur",
      "type": "Government",
      "speciality": "General, Trauma",
      "rating": 4.0,
      "beds": 581,
      "address": "Main Road, Jabalpur",
      "phone": "0494-2664092",
      "emergency": true,
      "lat": 23.168366268689095,
      "lng": 80.00550253160445
    },
    {
      "name": "Global Healthcare",
      "type": "Private",
      "speciality": "Emergency & General",
      "rating": 4.0,
      "beds": 112,
      "address": "Sector 10, Jabalpur",
      "phone": "0399-4155812",
      "emergency": false,
      "lat": 23.18392965379023,
      "lng": 80.01172497493238
    },
    {
      "name": "City Healthcare Jabalpur",
      "type": "Private",
      "speciality": "Emergency & General",
      "rating": 4.7,
      "beds": 86,
      "address": "Sector 13, Jabalpur",
      "phone": "0903-4609059",
      "emergency": true,
      "lat": 23.193876013119798,
      "lng": 79.9693361317663
    },
    {
      "name": "City Medical Center",
      "type": "Private",
      "speciality": "Multi-Specialty",
      "rating": 4.1,
      "beds": 126,
      "address": "Sector 4, Jabalpur",
      "phone": "0663-4556404",
      "emergency": true,
      "lat": 23.1635865547815,
      "lng": 79.95895385402424
    }
  ],
  "jalandhar": [
    {
      "name": "District Hospital Jalandhar",
      "type": "Government",
      "speciality": "General, Trauma",
      "rating": 3.5,
      "beds": 946,
      "address": "Main Road, Jalandhar",
      "phone": "0446-2354009",
      "emergency": true,
      "lat": 31.313033777216006,
      "lng": 75.59087241185831
    },
    {
      "name": "Metro Hospital Jalandhar",
      "type": "Private",
      "speciality": "Cardiology, Ortho",
      "rating": 4.3,
      "beds": 113,
      "address": "Sector 6, Jalandhar",
      "phone": "0263-3563273",
      "emergency": true,
      "lat": 31.32748370195366,
      "lng": 75.5480601326371
    },
    {
      "name": "Sanjeevani Medical Center Jalandhar",
      "type": "Private",
      "speciality": "Maternity & General",
      "rating": 4.1,
      "beds": 265,
      "address": "Sector 3, Jalandhar",
      "phone": "0626-4007216",
      "emergency": true,
      "lat": 31.31008135409656,
      "lng": 75.59234733198893
    },
    {
      "name": "General Nursing Home Jalandhar",
      "type": "Private",
      "speciality": "Cardiology, Ortho",
      "rating": 4.1,
      "beds": 169,
      "address": "Sector 8, Jalandhar",
      "phone": "0508-3759346",
      "emergency": true,
      "lat": 31.312142789386737,
      "lng": 75.60122359299272
    }
  ],
  "jalgaon": [
    {
      "name": "District Hospital Jalgaon",
      "type": "Government",
      "speciality": "General, Trauma",
      "rating": 3.6,
      "beds": 593,
      "address": "Main Road, Jalgaon",
      "phone": "0137-2307181",
      "emergency": true,
      "lat": 20.995774981141256,
      "lng": 75.55822198895642
    },
    {
      "name": "General Hospital Jalgaon",
      "type": "Private",
      "speciality": "Emergency & General",
      "rating": 4.6,
      "beds": 187,
      "address": "Sector 13, Jalgaon",
      "phone": "0432-3572896",
      "emergency": true,
      "lat": 21.018785683955954,
      "lng": 75.54318959517745
    },
    {
      "name": "City Superspecialty Jalgaon",
      "type": "Private",
      "speciality": "Multi-Specialty",
      "rating": 4.6,
      "beds": 118,
      "address": "Sector 6, Jalgaon",
      "phone": "0191-3729474",
      "emergency": true,
      "lat": 21.035483133944958,
      "lng": 75.56330190252754
    },
    {
      "name": "Apollo Clinic Hospital Jalgaon",
      "type": "Private",
      "speciality": "General, Trauma",
      "rating": 4.3,
      "beds": 141,
      "address": "Sector 1, Jalgaon",
      "phone": "0443-3670540",
      "emergency": true,
      "lat": 21.03544943182444,
      "lng": 75.53415654683705
    }
  ],
  "jammu": [
    {
      "name": "District Hospital Jammu",
      "type": "Government",
      "speciality": "General, Trauma",
      "rating": 4.0,
      "beds": 797,
      "address": "Main Road, Jammu",
      "phone": "0652-2141430",
      "emergency": true,
      "lat": 32.7403120317357,
      "lng": 74.83993309008213
    },
    {
      "name": "Global Superspecialty Jammu",
      "type": "Private",
      "speciality": "Multi-Specialty",
      "rating": 4.7,
      "beds": 292,
      "address": "Sector 14, Jammu",
      "phone": "0370-4853752",
      "emergency": true,
      "lat": 32.732347126157585,
      "lng": 74.84556580288675
    },
    {
      "name": "Apollo Clinic Superspecialty Jammu",
      "type": "Private",
      "speciality": "Multi-Specialty",
      "rating": 4.2,
      "beds": 224,
      "address": "Sector 5, Jammu",
      "phone": "0283-3203471",
      "emergency": true,
      "lat": 32.718569507666,
      "lng": 74.86523545861004
    },
    {
      "name": "Fortis Satellite Medical Center Jammu",
      "type": "Private",
      "speciality": "Maternity & General",
      "rating": 4.4,
      "beds": 355,
      "address": "Sector 3, Jammu",
      "phone": "0524-4966398",
      "emergency": true,
      "lat": 32.71447255295194,
      "lng": 74.85554265979596
    }
  ],
  "jamnagar": [
    {
      "name": "District Hospital Jamnagar",
      "type": "Government",
      "speciality": "General, Trauma",
      "rating": 4.0,
      "beds": 633,
      "address": "Main Road, Jamnagar",
      "phone": "0685-2381023",
      "emergency": true,
      "lat": 22.479830251926852,
      "lng": 70.06959597423216
    },
    {
      "name": "Global Superspecialty Jamnagar",
      "type": "Private",
      "speciality": "Maternity & General",
      "rating": 4.3,
      "beds": 339,
      "address": "Sector 15, Jamnagar",
      "phone": "0469-4571770",
      "emergency": true,
      "lat": 22.457181510149343,
      "lng": 70.06735730186328
    },
    {
      "name": "Global Nursing Home Jamnagar",
      "type": "Private",
      "speciality": "General, Trauma",
      "rating": 4.8,
      "beds": 193,
      "address": "Sector 7, Jamnagar",
      "phone": "0957-4447520",
      "emergency": false,
      "lat": 22.4735081703267,
      "lng": 70.03708393943901
    },
    {
      "name": "Global Hospital Jamnagar",
      "type": "Private",
      "speciality": "General, Trauma",
      "rating": 4.5,
      "beds": 118,
      "address": "Sector 13, Jamnagar",
      "phone": "0849-3981310",
      "emergency": false,
      "lat": 22.481575826946425,
      "lng": 70.07646564933286
    }
  ],
  "jamshedpur": [
    {
      "name": "District Hospital Jamshedpur",
      "type": "Government",
      "speciality": "General, Trauma",
      "rating": 3.9,
      "beds": 409,
      "address": "Main Road, Jamshedpur",
      "phone": "0269-2041722",
      "emergency": true,
      "lat": 22.7975202238077,
      "lng": 86.20502919825746
    },
    {
      "name": "Global Healthcare Jamshedpur",
      "type": "Private",
      "speciality": "General, Trauma",
      "rating": 4.1,
      "beds": 320,
      "address": "Sector 1, Jamshedpur",
      "phone": "0576-4871876",
      "emergency": false,
      "lat": 22.822442719291526,
      "lng": 86.22165834840398
    },
    {
      "name": "Life Nursing Home",
      "type": "Private",
      "speciality": "Emergency & General",
      "rating": 4.4,
      "beds": 223,
      "address": "Sector 12, Jamshedpur",
      "phone": "0387-4360701",
      "emergency": false,
      "lat": 22.780514476771565,
      "lng": 86.22835957501952
    },
    {
      "name": "City Nursing Home",
      "type": "Private",
      "speciality": "Multi-Specialty",
      "rating": 4.5,
      "beds": 379,
      "address": "Sector 9, Jamshedpur",
      "phone": "0955-3921564",
      "emergency": false,
      "lat": 22.79101725418406,
      "lng": 86.20456753579224
    }
  ],
  "jhansi": [
    {
      "name": "District Hospital Jhansi",
      "type": "Government",
      "speciality": "General, Trauma",
      "rating": 3.6,
      "beds": 867,
      "address": "Main Road, Jhansi",
      "phone": "0711-2934821",
      "emergency": true,
      "lat": 25.459463948549693,
      "lng": 78.55184079503243
    },
    {
      "name": "Apex Superspecialty Jhansi",
      "type": "Private",
      "speciality": "Maternity & General",
      "rating": 4.3,
      "beds": 306,
      "address": "Sector 8, Jhansi",
      "phone": "0222-4896655",
      "emergency": true,
      "lat": 25.436569303723967,
      "lng": 78.54486545558275
    },
    {
      "name": "Global Nursing Home Jhansi",
      "type": "Private",
      "speciality": "Emergency & General",
      "rating": 4.8,
      "beds": 50,
      "address": "Sector 12, Jhansi",
      "phone": "0928-4783297",
      "emergency": false,
      "lat": 25.473030611161946,
      "lng": 78.55821989865461
    },
    {
      "name": "Fortis Satellite Superspecialty",
      "type": "Private",
      "speciality": "Maternity & General",
      "rating": 4.1,
      "beds": 172,
      "address": "Sector 9, Jhansi",
      "phone": "0406-4601083",
      "emergency": false,
      "lat": 25.423254877320897,
      "lng": 78.57075185272846
    }
  ],
  "jodhpur": [
    {
      "name": "District Hospital Jodhpur",
      "type": "Government",
      "speciality": "General, Trauma",
      "rating": 3.7,
      "beds": 681,
      "address": "Main Road, Jodhpur",
      "phone": "0427-2955517",
      "emergency": true,
      "lat": 26.220145767099545,
      "lng": 73.00977137129685
    },
    {
      "name": "Apex Nursing Home",
      "type": "Private",
      "speciality": "Multi-Specialty",
      "rating": 4.2,
      "beds": 262,
      "address": "Sector 10, Jodhpur",
      "phone": "0652-4987658",
      "emergency": true,
      "lat": 26.225788676862013,
      "lng": 73.02734432648978
    },
    {
      "name": "Life Nursing Home",
      "type": "Private",
      "speciality": "Multi-Specialty",
      "rating": 4.2,
      "beds": 361,
      "address": "Sector 10, Jodhpur",
      "phone": "0290-3821145",
      "emergency": false,
      "lat": 26.267275512799166,
      "lng": 73.04886822112684
    },
    {
      "name": "Global Hospital",
      "type": "Private",
      "speciality": "General, Trauma",
      "rating": 4.1,
      "beds": 107,
      "address": "Sector 5, Jodhpur",
      "phone": "0736-3666251",
      "emergency": true,
      "lat": 26.26325444172162,
      "lng": 73.00024118089728
    }
  ],
  "kakinada": [
    {
      "name": "District Hospital Kakinada",
      "type": "Government",
      "speciality": "General, Trauma",
      "rating": 4.2,
      "beds": 898,
      "address": "Main Road, Kakinada",
      "phone": "0193-2204504",
      "emergency": true,
      "lat": 16.999701523441434,
      "lng": 82.25960029688972
    },
    {
      "name": "Metro Superspecialty Kakinada",
      "type": "Private",
      "speciality": "Emergency & General",
      "rating": 4.4,
      "beds": 50,
      "address": "Sector 11, Kakinada",
      "phone": "0179-4465747",
      "emergency": true,
      "lat": 16.960031771589342,
      "lng": 82.26474645086132
    },
    {
      "name": "General Hospital",
      "type": "Private",
      "speciality": "Multi-Specialty",
      "rating": 4.1,
      "beds": 199,
      "address": "Sector 9, Kakinada",
      "phone": "0895-3931915",
      "emergency": true,
      "lat": 16.968641705917715,
      "lng": 82.26293542742465
    },
    {
      "name": "Apex Medical Center Kakinada",
      "type": "Private",
      "speciality": "Emergency & General",
      "rating": 4.1,
      "beds": 91,
      "address": "Sector 6, Kakinada",
      "phone": "0797-4949207",
      "emergency": true,
      "lat": 17.00230217246563,
      "lng": 82.25104350879421
    }
  ],
  "kalyan": [
    {
      "name": "District Hospital Kalyan",
      "type": "Government",
      "speciality": "General, Trauma",
      "rating": 4.0,
      "beds": 628,
      "address": "Main Road, Kalyan",
      "phone": "0922-2121526",
      "emergency": true,
      "lat": 19.25325074065897,
      "lng": 73.11726904645383
    },
    {
      "name": "City Healthcare Kalyan",
      "type": "Private",
      "speciality": "Multi-Specialty",
      "rating": 4.4,
      "beds": 97,
      "address": "Sector 6, Kalyan",
      "phone": "0918-3833647",
      "emergency": true,
      "lat": 19.212927755585874,
      "lng": 73.12473766448574
    },
    {
      "name": "Sanjeevani Superspecialty",
      "type": "Private",
      "speciality": "Cardiology, Ortho",
      "rating": 4.5,
      "beds": 209,
      "address": "Sector 7, Kalyan",
      "phone": "0233-4718802",
      "emergency": true,
      "lat": 19.22035044032159,
      "lng": 73.13924379272632
    },
    {
      "name": "Care Medical Center",
      "type": "Private",
      "speciality": "Maternity & General",
      "rating": 4.4,
      "beds": 215,
      "address": "Sector 4, Kalyan",
      "phone": "0259-4890832",
      "emergency": true,
      "lat": 19.257162187321267,
      "lng": 73.11668035141531
    }
  ],
  "kannur": [
    {
      "name": "District Hospital Kannur",
      "type": "Government",
      "speciality": "General, Trauma",
      "rating": 3.6,
      "beds": 492,
      "address": "Main Road, Kannur",
      "phone": "0431-2773153",
      "emergency": true,
      "lat": 11.868807745440044,
      "lng": 75.37480780387698
    },
    {
      "name": "Sanjeevani Nursing Home",
      "type": "Private",
      "speciality": "Multi-Specialty",
      "rating": 4.2,
      "beds": 302,
      "address": "Sector 7, Kannur",
      "phone": "0709-4980424",
      "emergency": true,
      "lat": 11.894239359382826,
      "lng": 75.3598154066547
    },
    {
      "name": "Care Hospital",
      "type": "Private",
      "speciality": "Maternity & General",
      "rating": 4.2,
      "beds": 69,
      "address": "Sector 12, Kannur",
      "phone": "0249-3978617",
      "emergency": false,
      "lat": 11.845190821427716,
      "lng": 75.39771163985611
    },
    {
      "name": "Life Hospital",
      "type": "Private",
      "speciality": "Maternity & General",
      "rating": 4.2,
      "beds": 95,
      "address": "Sector 1, Kannur",
      "phone": "0120-4593278",
      "emergency": true,
      "lat": 11.8625940366227,
      "lng": 75.37624359502045
    }
  ],
  "kanpur": [
    {
      "name": "District Hospital Kanpur",
      "type": "Government",
      "speciality": "General, Trauma",
      "rating": 3.6,
      "beds": 988,
      "address": "Main Road, Kanpur",
      "phone": "0289-2676997",
      "emergency": true,
      "lat": 26.46530164607366,
      "lng": 80.34781899138166
    },
    {
      "name": "Metro Superspecialty Kanpur",
      "type": "Private",
      "speciality": "Multi-Specialty",
      "rating": 4.3,
      "beds": 318,
      "address": "Sector 3, Kanpur",
      "phone": "0864-3613494",
      "emergency": true,
      "lat": 26.437415723934322,
      "lng": 80.34753229870772
    },
    {
      "name": "Life Nursing Home",
      "type": "Private",
      "speciality": "Maternity & General",
      "rating": 4.7,
      "beds": 234,
      "address": "Sector 11, Kanpur",
      "phone": "0347-4717829",
      "emergency": false,
      "lat": 26.475890303999325,
      "lng": 80.33253113110632
    },
    {
      "name": "Care Hospital Kanpur",
      "type": "Private",
      "speciality": "Emergency & General",
      "rating": 4.3,
      "beds": 131,
      "address": "Sector 14, Kanpur",
      "phone": "0988-4510183",
      "emergency": true,
      "lat": 26.435149260964064,
      "lng": 80.31828560163785
    }
  ],
  "kollam": [
    {
      "name": "District Hospital Kollam",
      "type": "Government",
      "speciality": "General, Trauma",
      "rating": 4.2,
      "beds": 407,
      "address": "Main Road, Kollam",
      "phone": "0662-2957511",
      "emergency": true,
      "lat": 8.874432573116136,
      "lng": 76.59799333636626
    },
    {
      "name": "Global Healthcare",
      "type": "Private",
      "speciality": "Emergency & General",
      "rating": 4.7,
      "beds": 257,
      "address": "Sector 7, Kollam",
      "phone": "0614-4387375",
      "emergency": true,
      "lat": 8.921077159557736,
      "lng": 76.58508603406557
    },
    {
      "name": "City Superspecialty",
      "type": "Private",
      "speciality": "Multi-Specialty",
      "rating": 4.2,
      "beds": 338,
      "address": "Sector 4, Kollam",
      "phone": "0490-3044632",
      "emergency": false,
      "lat": 8.871489837912264,
      "lng": 76.62963398534903
    },
    {
      "name": "Apollo Clinic Hospital",
      "type": "Private",
      "speciality": "Cardiology, Ortho",
      "rating": 4.3,
      "beds": 307,
      "address": "Sector 11, Kollam",
      "phone": "0219-4989963",
      "emergency": true,
      "lat": 8.907368304001638,
      "lng": 76.58560983823037
    }
  ],
  "kota": [
    {
      "name": "District Hospital Kota",
      "type": "Government",
      "speciality": "General, Trauma",
      "rating": 4.1,
      "beds": 764,
      "address": "Main Road, Kota",
      "phone": "0550-2193939",
      "emergency": true,
      "lat": 25.225485689162362,
      "lng": 75.86102958421716
    },
    {
      "name": "Care Nursing Home Kota",
      "type": "Private",
      "speciality": "Multi-Specialty",
      "rating": 4.8,
      "beds": 75,
      "address": "Sector 11, Kota",
      "phone": "0591-3892526",
      "emergency": true,
      "lat": 25.213760433805767,
      "lng": 75.88617171570675
    },
    {
      "name": "Fortis Satellite Medical Center Kota",
      "type": "Private",
      "speciality": "General, Trauma",
      "rating": 4.3,
      "beds": 302,
      "address": "Sector 4, Kota",
      "phone": "0827-3400988",
      "emergency": false,
      "lat": 25.229440521958896,
      "lng": 75.84002785149532
    },
    {
      "name": "Global Nursing Home",
      "type": "Private",
      "speciality": "Multi-Specialty",
      "rating": 4.3,
      "beds": 86,
      "address": "Sector 11, Kota",
      "phone": "0265-4749415",
      "emergency": true,
      "lat": 25.22970529185623,
      "lng": 75.83515478821506
    }
  ],
  "kozhikode": [
    {
      "name": "District Hospital Kozhikode",
      "type": "Government",
      "speciality": "General, Trauma",
      "rating": 3.9,
      "beds": 523,
      "address": "Main Road, Kozhikode",
      "phone": "0673-2921206",
      "emergency": true,
      "lat": 11.263348864876706,
      "lng": 75.78857375430077
    },
    {
      "name": "Life Hospital",
      "type": "Private",
      "speciality": "Multi-Specialty",
      "rating": 4.7,
      "beds": 270,
      "address": "Sector 10, Kozhikode",
      "phone": "0502-4627575",
      "emergency": false,
      "lat": 11.278152642908744,
      "lng": 75.80554039156885
    },
    {
      "name": "Apex Medical Center Kozhikode",
      "type": "Private",
      "speciality": "General, Trauma",
      "rating": 4.2,
      "beds": 387,
      "address": "Sector 3, Kozhikode",
      "phone": "0541-4934449",
      "emergency": false,
      "lat": 11.246655437414118,
      "lng": 75.80545841655348
    },
    {
      "name": "Life Hospital Kozhikode",
      "type": "Private",
      "speciality": "Multi-Specialty",
      "rating": 4.7,
      "beds": 322,
      "address": "Sector 7, Kozhikode",
      "phone": "0924-4685427",
      "emergency": true,
      "lat": 11.239523007642001,
      "lng": 75.78093320793526
    }
  ],
  "kurnool": [
    {
      "name": "District Hospital Kurnool",
      "type": "Government",
      "speciality": "General, Trauma",
      "rating": 4.0,
      "beds": 654,
      "address": "Main Road, Kurnool",
      "phone": "0112-2591200",
      "emergency": true,
      "lat": 15.808293232031813,
      "lng": 78.04786642379389
    },
    {
      "name": "Apex Healthcare",
      "type": "Private",
      "speciality": "General, Trauma",
      "rating": 4.0,
      "beds": 83,
      "address": "Sector 1, Kurnool",
      "phone": "0461-3305003",
      "emergency": true,
      "lat": 15.831890860494541,
      "lng": 78.0348620039475
    },
    {
      "name": "General Hospital Kurnool",
      "type": "Private",
      "speciality": "Multi-Specialty",
      "rating": 4.7,
      "beds": 159,
      "address": "Sector 14, Kurnool",
      "phone": "0865-4029328",
      "emergency": true,
      "lat": 15.821716774909863,
      "lng": 78.05243972411054
    },
    {
      "name": "Fortis Satellite Superspecialty",
      "type": "Private",
      "speciality": "Multi-Specialty",
      "rating": 4.5,
      "beds": 75,
      "address": "Sector 9, Kurnool",
      "phone": "0756-4012096",
      "emergency": true,
      "lat": 15.804549083092303,
      "lng": 78.01057930157567
    }
  ],
  "ludhiana": [
    {
      "name": "District Hospital Ludhiana",
      "type": "Government",
      "speciality": "General, Trauma",
      "rating": 4.1,
      "beds": 794,
      "address": "Main Road, Ludhiana",
      "phone": "0456-2799892",
      "emergency": true,
      "lat": 30.913560077902105,
      "lng": 75.86908277696637
    },
    {
      "name": "Global Healthcare",
      "type": "Private",
      "speciality": "Maternity & General",
      "rating": 4.4,
      "beds": 206,
      "address": "Sector 10, Ludhiana",
      "phone": "0906-4268573",
      "emergency": true,
      "lat": 30.88860620049988,
      "lng": 75.8312806739615
    },
    {
      "name": "Global Healthcare",
      "type": "Private",
      "speciality": "Multi-Specialty",
      "rating": 4.3,
      "beds": 254,
      "address": "Sector 14, Ludhiana",
      "phone": "0789-4818706",
      "emergency": true,
      "lat": 30.920932207494467,
      "lng": 75.8276292646448
    },
    {
      "name": "City Healthcare Ludhiana",
      "type": "Private",
      "speciality": "Emergency & General",
      "rating": 4.4,
      "beds": 201,
      "address": "Sector 6, Ludhiana",
      "phone": "0991-3284646",
      "emergency": false,
      "lat": 30.897786082623906,
      "lng": 75.83743793643518
    }
  ],
  "madurai": [
    {
      "name": "District Hospital Madurai",
      "type": "Government",
      "speciality": "General, Trauma",
      "rating": 3.9,
      "beds": 544,
      "address": "Main Road, Madurai",
      "phone": "0588-2182534",
      "emergency": true,
      "lat": 9.937207765166015,
      "lng": 78.11692655111062
    },
    {
      "name": "Care Hospital",
      "type": "Private",
      "speciality": "Multi-Specialty",
      "rating": 4.4,
      "beds": 126,
      "address": "Sector 5, Madurai",
      "phone": "0529-4094997",
      "emergency": true,
      "lat": 9.92812787963624,
      "lng": 78.12284346432904
    },
    {
      "name": "Apollo Clinic Superspecialty Madurai",
      "type": "Private",
      "speciality": "Cardiology, Ortho",
      "rating": 4.5,
      "beds": 196,
      "address": "Sector 8, Madurai",
      "phone": "0555-4342708",
      "emergency": false,
      "lat": 9.94723785458551,
      "lng": 78.12305435199575
    },
    {
      "name": "Global Medical Center",
      "type": "Private",
      "speciality": "Emergency & General",
      "rating": 4.5,
      "beds": 355,
      "address": "Sector 13, Madurai",
      "phone": "0272-4000262",
      "emergency": true,
      "lat": 9.953801654982552,
      "lng": 78.12236669058527
    }
  ],
  "mangalore": [
    {
      "name": "District Hospital Mangalore",
      "type": "Government",
      "speciality": "General, Trauma",
      "rating": 3.8,
      "beds": 585,
      "address": "Main Road, Mangalore",
      "phone": "0330-2962790",
      "emergency": true,
      "lat": 12.930260609513104,
      "lng": 74.85619128015283
    },
    {
      "name": "Sanjeevani Hospital",
      "type": "Private",
      "speciality": "Multi-Specialty",
      "rating": 4.1,
      "beds": 108,
      "address": "Sector 13, Mangalore",
      "phone": "0967-3604544",
      "emergency": false,
      "lat": 12.942171252463229,
      "lng": 74.86906647822184
    },
    {
      "name": "Fortis Satellite Superspecialty",
      "type": "Private",
      "speciality": "Cardiology, Ortho",
      "rating": 4.7,
      "beds": 57,
      "address": "Sector 9, Mangalore",
      "phone": "0689-3081274",
      "emergency": true,
      "lat": 12.885564955438248,
      "lng": 74.85007473882611
    },
    {
      "name": "Apex Hospital",
      "type": "Private",
      "speciality": "General, Trauma",
      "rating": 4.4,
      "beds": 228,
      "address": "Sector 1, Mangalore",
      "phone": "0791-3389594",
      "emergency": true,
      "lat": 12.89495156549609,
      "lng": 74.83744215109523
    }
  ],
  "mathura": [
    {
      "name": "District Hospital Mathura",
      "type": "Government",
      "speciality": "General, Trauma",
      "rating": 4.2,
      "beds": 846,
      "address": "Main Road, Mathura",
      "phone": "0324-2457307",
      "emergency": true,
      "lat": 27.479526858380797,
      "lng": 77.65378672561009
    },
    {
      "name": "Global Superspecialty Mathura",
      "type": "Private",
      "speciality": "Multi-Specialty",
      "rating": 4.1,
      "beds": 286,
      "address": "Sector 5, Mathura",
      "phone": "0782-4141725",
      "emergency": false,
      "lat": 27.48615584865041,
      "lng": 77.65416049943852
    },
    {
      "name": "Fortis Satellite Nursing Home",
      "type": "Private",
      "speciality": "Cardiology, Ortho",
      "rating": 4.4,
      "beds": 392,
      "address": "Sector 12, Mathura",
      "phone": "0773-3166222",
      "emergency": false,
      "lat": 27.500555251900828,
      "lng": 77.69592536027307
    },
    {
      "name": "Global Superspecialty",
      "type": "Private",
      "speciality": "Cardiology, Ortho",
      "rating": 4.4,
      "beds": 54,
      "address": "Sector 12, Mathura",
      "phone": "0495-4459013",
      "emergency": false,
      "lat": 27.509840890097326,
      "lng": 77.68535488591496
    }
  ],
  "meerut": [
    {
      "name": "District Hospital Meerut",
      "type": "Government",
      "speciality": "General, Trauma",
      "rating": 4.0,
      "beds": 881,
      "address": "Main Road, Meerut",
      "phone": "0476-2954623",
      "emergency": true,
      "lat": 28.99388889743605,
      "lng": 77.70870619355742
    },
    {
      "name": "Apollo Clinic Superspecialty Meerut",
      "type": "Private",
      "speciality": "Cardiology, Ortho",
      "rating": 4.7,
      "beds": 113,
      "address": "Sector 1, Meerut",
      "phone": "0805-3448109",
      "emergency": false,
      "lat": 29.0029704279366,
      "lng": 77.72963672689733
    },
    {
      "name": "Metro Hospital",
      "type": "Private",
      "speciality": "Multi-Specialty",
      "rating": 4.7,
      "beds": 358,
      "address": "Sector 4, Meerut",
      "phone": "0952-3987814",
      "emergency": true,
      "lat": 28.97283495375867,
      "lng": 77.70324932225076
    },
    {
      "name": "Global Superspecialty Meerut",
      "type": "Private",
      "speciality": "General, Trauma",
      "rating": 4.4,
      "beds": 195,
      "address": "Sector 6, Meerut",
      "phone": "0492-4450013",
      "emergency": false,
      "lat": 29.000005944250574,
      "lng": 77.68346950629417
    }
  ],
  "moradabad": [
    {
      "name": "District Hospital Moradabad",
      "type": "Government",
      "speciality": "General, Trauma",
      "rating": 3.9,
      "beds": 586,
      "address": "Main Road, Moradabad",
      "phone": "0356-2265003",
      "emergency": true,
      "lat": 28.825963538804263,
      "lng": 78.78024697528792
    },
    {
      "name": "Fortis Satellite Medical Center Moradabad",
      "type": "Private",
      "speciality": "Multi-Specialty",
      "rating": 4.4,
      "beds": 251,
      "address": "Sector 2, Moradabad",
      "phone": "0837-4127390",
      "emergency": true,
      "lat": 28.859650940909386,
      "lng": 78.78242513671965
    },
    {
      "name": "Life Hospital Moradabad",
      "type": "Private",
      "speciality": "Emergency & General",
      "rating": 4.7,
      "beds": 352,
      "address": "Sector 1, Moradabad",
      "phone": "0284-4061115",
      "emergency": true,
      "lat": 28.80952947331231,
      "lng": 78.78774581050702
    },
    {
      "name": "City Medical Center",
      "type": "Private",
      "speciality": "Emergency & General",
      "rating": 4.2,
      "beds": 198,
      "address": "Sector 9, Moradabad",
      "phone": "0117-4507384",
      "emergency": true,
      "lat": 28.83901418276663,
      "lng": 78.78918725296205
    }
  ],
  "mysore": [
    {
      "name": "District Hospital Mysore",
      "type": "Government",
      "speciality": "General, Trauma",
      "rating": 3.7,
      "beds": 773,
      "address": "Main Road, Mysore",
      "phone": "0449-2989884",
      "emergency": true,
      "lat": 12.288230854169761,
      "lng": 76.6291471813624
    },
    {
      "name": "Global Nursing Home",
      "type": "Private",
      "speciality": "General, Trauma",
      "rating": 4.4,
      "beds": 96,
      "address": "Sector 13, Mysore",
      "phone": "0895-4152545",
      "emergency": true,
      "lat": 12.277247700377544,
      "lng": 76.61191115757424
    },
    {
      "name": "Apollo Clinic Healthcare Mysore",
      "type": "Private",
      "speciality": "Maternity & General",
      "rating": 4.3,
      "beds": 188,
      "address": "Sector 6, Mysore",
      "phone": "0741-3809146",
      "emergency": false,
      "lat": 12.313468174351966,
      "lng": 76.63876615024893
    },
    {
      "name": "Care Medical Center Mysore",
      "type": "Private",
      "speciality": "Multi-Specialty",
      "rating": 4.6,
      "beds": 337,
      "address": "Sector 1, Mysore",
      "phone": "0309-4830503",
      "emergency": true,
      "lat": 12.298798856324343,
      "lng": 76.63573037339965
    }
  ],
  "nagpur": [
    {
      "name": "District Hospital Nagpur",
      "type": "Government",
      "speciality": "General, Trauma",
      "rating": 3.9,
      "beds": 385,
      "address": "Main Road, Nagpur",
      "phone": "0845-2277158",
      "emergency": true,
      "lat": 21.13429094615247,
      "lng": 79.10387256136895
    },
    {
      "name": "City Superspecialty Nagpur",
      "type": "Private",
      "speciality": "Cardiology, Ortho",
      "rating": 4.3,
      "beds": 332,
      "address": "Sector 3, Nagpur",
      "phone": "0467-3790932",
      "emergency": true,
      "lat": 21.147742257787648,
      "lng": 79.1165882825611
    },
    {
      "name": "Life Superspecialty",
      "type": "Private",
      "speciality": "Multi-Specialty",
      "rating": 4.2,
      "beds": 189,
      "address": "Sector 11, Nagpur",
      "phone": "0927-4340737",
      "emergency": false,
      "lat": 21.15136812016721,
      "lng": 79.0692193885211
    },
    {
      "name": "General Hospital Nagpur",
      "type": "Private",
      "speciality": "Maternity & General",
      "rating": 4.4,
      "beds": 181,
      "address": "Sector 4, Nagpur",
      "phone": "0279-4833677",
      "emergency": false,
      "lat": 21.175080263251328,
      "lng": 79.09297481201301
    }
  ],
  "nanded": [
    {
      "name": "District Hospital Nanded",
      "type": "Government",
      "speciality": "General, Trauma",
      "rating": 3.8,
      "beds": 696,
      "address": "Main Road, Nanded",
      "phone": "0367-2417702",
      "emergency": true,
      "lat": 19.129447010690196,
      "lng": 77.33626991087912
    },
    {
      "name": "Apollo Clinic Medical Center",
      "type": "Private",
      "speciality": "Multi-Specialty",
      "rating": 4.6,
      "beds": 386,
      "address": "Sector 8, Nanded",
      "phone": "0787-3563467",
      "emergency": true,
      "lat": 19.157340863129814,
      "lng": 77.29213143794522
    },
    {
      "name": "Apex Healthcare Nanded",
      "type": "Private",
      "speciality": "Maternity & General",
      "rating": 4.3,
      "beds": 245,
      "address": "Sector 8, Nanded",
      "phone": "0212-4345821",
      "emergency": true,
      "lat": 19.135086816423954,
      "lng": 77.30647951311218
    },
    {
      "name": "Apex Nursing Home Nanded",
      "type": "Private",
      "speciality": "Multi-Specialty",
      "rating": 4.0,
      "beds": 234,
      "address": "Sector 10, Nanded",
      "phone": "0113-3721109",
      "emergency": true,
      "lat": 19.118253152229798,
      "lng": 77.33978950648158
    }
  ],
  "nashik": [
    {
      "name": "District Hospital Nashik",
      "type": "Government",
      "speciality": "General, Trauma",
      "rating": 4.3,
      "beds": 905,
      "address": "Main Road, Nashik",
      "phone": "0758-2730552",
      "emergency": true,
      "lat": 20.02516925457339,
      "lng": 73.78434513689511
    },
    {
      "name": "Global Nursing Home Nashik",
      "type": "Private",
      "speciality": "Emergency & General",
      "rating": 4.2,
      "beds": 192,
      "address": "Sector 3, Nashik",
      "phone": "0275-4156498",
      "emergency": true,
      "lat": 19.98876822008552,
      "lng": 73.77760957832025
    },
    {
      "name": "City Hospital",
      "type": "Private",
      "speciality": "Multi-Specialty",
      "rating": 4.3,
      "beds": 268,
      "address": "Sector 9, Nashik",
      "phone": "0532-3801191",
      "emergency": false,
      "lat": 20.004165214130254,
      "lng": 73.8032706366272
    },
    {
      "name": "Fortis Satellite Superspecialty Nashik",
      "type": "Private",
      "speciality": "Emergency & General",
      "rating": 4.7,
      "beds": 202,
      "address": "Sector 11, Nashik",
      "phone": "0170-4380300",
      "emergency": true,
      "lat": 19.989160527980204,
      "lng": 73.76175196922567
    }
  ],
  "nellore": [
    {
      "name": "District Hospital Nellore",
      "type": "Government",
      "speciality": "General, Trauma",
      "rating": 3.7,
      "beds": 648,
      "address": "Main Road, Nellore",
      "phone": "0627-2075185",
      "emergency": true,
      "lat": 14.45921337830188,
      "lng": 79.97744759065273
    },
    {
      "name": "Fortis Satellite Superspecialty Nellore",
      "type": "Private",
      "speciality": "Multi-Specialty",
      "rating": 4.5,
      "beds": 368,
      "address": "Sector 8, Nellore",
      "phone": "0991-3524390",
      "emergency": true,
      "lat": 14.416464543402011,
      "lng": 79.9580472475186
    },
    {
      "name": "Apex Healthcare",
      "type": "Private",
      "speciality": "Multi-Specialty",
      "rating": 4.5,
      "beds": 272,
      "address": "Sector 3, Nellore",
      "phone": "0920-3589744",
      "emergency": false,
      "lat": 14.431964761444586,
      "lng": 79.96410649091779
    },
    {
      "name": "Care Nursing Home Nellore",
      "type": "Private",
      "speciality": "Emergency & General",
      "rating": 4.8,
      "beds": 55,
      "address": "Sector 12, Nellore",
      "phone": "0505-3645874",
      "emergency": true,
      "lat": 14.4206030717619,
      "lng": 79.98925666410732
    }
  ],
  "noida": [
    {
      "name": "District Hospital Noida",
      "type": "Government",
      "speciality": "General, Trauma",
      "rating": 3.8,
      "beds": 707,
      "address": "Main Road, Noida",
      "phone": "0836-2309362",
      "emergency": true,
      "lat": 28.528130452629952,
      "lng": 77.38064180454569
    },
    {
      "name": "Metro Healthcare Noida",
      "type": "Private",
      "speciality": "Multi-Specialty",
      "rating": 4.7,
      "beds": 180,
      "address": "Sector 7, Noida",
      "phone": "0244-3898237",
      "emergency": true,
      "lat": 28.555359390691663,
      "lng": 77.3630287927789
    },
    {
      "name": "Life Medical Center",
      "type": "Private",
      "speciality": "Multi-Specialty",
      "rating": 4.8,
      "beds": 59,
      "address": "Sector 12, Noida",
      "phone": "0613-3214832",
      "emergency": true,
      "lat": 28.51909651183769,
      "lng": 77.37946986847939
    },